Station ID,Latitude,Longitude,Name,Elevation,Years,Average Weatherscore,Margin of Error,N,Adjusted Average Weatherscore
41452099999,14,44.3333333,"IBB, YEMEN",1920,2024,1.31458333333333,0.348959791590051,48,1.66354312492338
80112099999,6.164536,-75.423119,"JOSE MARIA CORDOVA, COLOMBIA",2142.13,2024,2.20407906047327,0.258993351741924,357,2.46307241221519
63686099999,0.4833333,35.3,"ELDORET, KENYA",2120,2024,2.55950294313243,0.317301173939268,355,2.8768041170717
97780099999,-3.9166667,136.3666667,"ENAROTALI, INDONESIA",1770,2024,2.70129391178367,0.287088758261754,318,2.98838267004543
84472099999,-7.139183,-78.4894,"GEN FAP ARMANDO REVOREDO IGLESIAS, PERU",2676.44,2024,2.78563380281691,0.318141516596008,355,3.10377531941291
92014599999,-5.826789,144.295861,"MOUNT HAGEN, PAPUA NEW GUINEA",1642.26,2024,2.9741608305033,0.313096006720169,350,3.28725683722347
63726099999,-1.25,29.9833333,"KABALE, UGANDA",1869,2024,1.98,1.31955584285016,5,3.29955584285016
84076099999,-0.2166666,-78.3666666,"LA TOLA, ECUADOR",2480,2024,2.82977441731715,0.48905662588981,95,3.31883104320697
60007099999,28.0333333,-17.2166666,"LA GOMERA AEROPUERTO, SPAIN",219,2024,2.94400308435806,0.383896533368827,304,3.32789961772688
41399099999,15.7666666,44.0166666,"AMRAN, YEMEN",15,2024,2.22874743641272,1.13896892296082,23,3.36771635937354
63737099999,-1.1333333,35.8333333,"NAROK, KENYA",1890,2024,3.1261743380467,0.322763949317703,318,3.4489382873644
84673099999,-13.154819,-74.204417,"CORONEL FAP ALFREDO MENDIVIL DUARTE, PERU",2717.9,2024,3.08464926578178,0.431199856592212,355,3.51584912237399
98328099999,16.375103,120.619636,"BAGUIO, PHILIPPINES",1295.7,2024,3.19238640444342,0.339424288859159,352,3.53181069330258
84239099999,-2.889467,-78.984397,"MARISCAL LAMAR, ECUADOR",2531.66,2024,3.17894660618232,0.355050501051433,356,3.53399710723375
63881099999,-7.9666667,31.63,"SUMBAWANGA, TANZANIA",1923,2024,3.24855668690299,0.30387945581058,323,3.55243614271357
63741099999,-1.3,36.75,"NAIROBI DAGORETTI, KENYA",1798,2024,3.25547082316733,0.307218509292284,345,3.56268933245961
76654699999,19.396692,-102.039056,"LICENCIADO Y GEN IGNACIO LOPEZ RAYON, MEXICO",1602.63,2024,3.43067385927363,0.395790051529677,352,3.8264639108033
84056099999,0.033,-78.233,"TOMALON, ECUADOR",2790,2024,3.12932387789884,0.709889045531773,108,3.83921292343061
93994099999,-29.25,-177.9333333,"RAOUL ISLAND AWS, NEW ZEALAND",49.5,2024,3.18121601596739,0.773472108364991,87,3.95468812433238
63709099999,-0.6666667,34.7833333,"KISII, KENYA",1493,2024,3.61639836603416,0.338404052516357,342,3.95480241855052
63450099999,8.977889,38.799319,"BOLE INTERNATIONAL, ETHIOPIA",2325.62,2024,3.56579572908068,0.406457627592255,346,3.97225335667293
63710099999,-0.3666667,35.35,"KERICHO, KENYA",2184,2024,3.45458397460116,0.625779640995131,287,4.0803636155963
84072599999,-0.1166666,-78.3666666,"MARISCAL SUCRE INTERNATIONAL AIRPORT, ECUADOR",2400,2024,3.76190636275377,0.378171807499743,355,4.14007817025351
84075099999,-0.4,-76.6,"LIMONCOCHA, ECUADOR",221,2024,3.61138141866647,0.529606111324046,204,4.14098752999051
80308099999,2.4544,-76.609319,"GUILLERMO LEON VALENCIA, COLOMBIA",1733.39,2024,3.85922823328002,0.398208049287447,319,4.25743628256747
78647599999,14.86555,-91.501981,"QUEZALTENANGO, GUATEMALA",2431,2024,3.92816040786,0.35780567679456,353,4.28596608465456
97284099999,-8.6333333,120.45,"RUTENG SATAR TACIK, INDONESIA",1170,2024,3.93041033926877,0.378504725777352,297,4.30891506504613
84600099999,-11.8391,-76.3779,"MATUCANA, PERU",2417,2024,3.75982905982906,0.589494391802631,117,4.34932345163169
63742099999,-1.321719,36.814833,"NAIROBI WILSON, KENYA",1687.37,2024,4.06926792588561,0.332266303137235,349,4.40153422902284
80149099999,5.029839,-75.464992,"LA NUBIA, COLOMBIA",2094.28,2024,4.00599783345669,0.403734202759647,354,4.40973203621633
63695099999,0.0833333,37.65,"MERU, KENYA",1554,2024,4.12040507598386,0.418092899055529,335,4.53849797503939
8522099999,32.6333333,-16.9,"FUNCHAL, PORTUGAL",56,2024,4.15936468402596,0.435808581073492,355,4.59517326509946
63474099999,7.1333333,40,"ROBE BALE, ETHIOPIA",2480,2024,3.2,1.39630017785098,7,4.59630017785097
63714099999,-0.2666667,36.1,"NAKURU, KENYA",1901,2024,4.19860171881907,0.40410242264479,337,4.60270414146386
63717099999,-0.5,36.9666667,"NYERI, KENYA",1759,2024,4.2369090174857,0.396957723062999,350,4.6338667405487
84270099999,-4.0333333,-79.2,"LOJA LA ARGELIA, ECUADOR",2160,2024,3.70212315516246,0.948312990083909,54,4.65043614524637
63789099999,-3.367794,36.633333,"ARUSHA, TANZANIA",1386.84,2024,4.2297999590321,0.4386695684459,347,4.668469527478
76845099999,16.75,-92.6333333,"SN. CRISTOBAL LAS CASAS CHIS., MEXICO",2116,2024,4.3013327770026,0.376434460000498,354,4.67776723700309
91958099999,-27.6166666,-144.3333333,"RAPA, FRENCH POLYNESIA",2,2024,4.4474130208129,0.444258625677389,355,4.89167164649029
78719099999,14.3333333,-88.1666667,"LA ESPERANZA, HONDURAS",1100,2024,4.48904261271965,0.442637320278332,353,4.93167993299799
76675099999,19.2833333,-99.6833333,"TOLUCA MEX., MEXICO",2720,2024,4.45357101570298,0.489028686583307,348,4.94259970228628
60005099999,28.626478,-17.755611,"LA PALMA, SPAIN",32.61,2024,4.31333316786,0.638421194341846,355,4.95175436220185
86781099999,-18.2333333,-43.65,"DIAMANTINA, BRAZIL",1357.5,2024,4.50658279700346,0.478088284134535,355,4.98467108113799
66325099999,-12.404633,16.947414,"KUITO, ANGOLA",1712.36,2024,3.16731078775667,1.91427795963156,11,5.08158874738822
63720099999,-0.5,37.45,"EMBU, KENYA",1493,2024,4.7483224900797,0.408121920121838,353,5.15644441020154
48057099999,20.7833333,97.05,"TAUNGGYI, BURMA",1436,2024,4.66028474386183,0.543030744854596,348,5.20331548871643
84143099999,-1.0166666,-78.5833333,"RUMIPAMBA, ECUADOR",2628,2024,4.5213270993732,0.685965516107478,121,5.20729261548067
84176099999,-1.653433,-78.656142,"CHIMBORAZO, ECUADOR",2789.22,2024,4.7014486066083,0.569867612132433,239,5.27131621874073
40419499999,27.039028,49.405083,"JUBAIL, SAUDI ARABIA",7.92,2024,3.50182652078794,1.81424745282721,12,5.31607397361516
85264099999,-18.4666666,-64.1,"VALLEGRANDE, BOLIVIA",1998,2024,4.54109344437181,0.782766861767324,184,5.32386030613914
80342099999,1.392844,-77.290822,"ANTONIO NARINO, COLOMBIA",1813.86,2024,4.62420504557338,0.700333012626432,355,5.32453805819981
60250099999,30.381353,-9.546311,"INEZGANE, MOROCCO",27.12,2024,4.72855568447321,0.59937367837704,343,5.32792936285025
87007099999,-22.150556,-65.5775,"LA QUIACA, ARGENTINA",3478.98,2024,4.79325802780002,0.546133519737409,354,5.33939154753743
67217099999,-13.273986,35.266262,"LICHINGA, MOZAMBIQUE",1373.12,2024,4.7773828320736,0.58819655272413,352,5.36557938479773
86870099999,-22.8666666,-46.05,"MONTE VERDE, BRAZIL",661.5,2024,4.82396598004721,0.551488374773993,355,5.3754543548212
63661099999,0.971989,34.958556,"KITALE, KENYA",1850.13,2024,5.00278019551018,0.402995826612357,326,5.40577602212254
99445099999,24.628,-81.109,"SOMBRERO KEY FL, UNITED STATES",6,2024,4.30364411144595,1.10798294142381,54,5.41162705286976
48031099999,22.9166666,93.6833333,"FALAM, BURMA",1372,2024,4.91462423647645,0.552115417393108,276,5.46673965386956
60020099999,28.45,-16.25,"STA. CRUZ DE TENERIFE, SPAIN",36,2024,4.94872441900993,0.568291771624536,330,5.51701619063447
76675399999,19.337072,-99.566008,"LICENCIADO ADOLFO LOPEZ MATEOS INTERNATIONAL, MEXICO",2580.43,2024,5.12838581550329,0.425999322169957,355,5.55438513767324
48030099999,22.65,93.6333333,"HAKHA, BURMA",1865.98,2024,5.00144504563508,0.557945777810117,336,5.5593908234452
63740099999,-1.319239,36.927775,"NAIROBI JKIA, KENYA",1623.66,2024,5.06790949909167,0.49167397522719,329,5.55958347431886
65134099999,9.639828,8.86905,"YAKUBU GOWON, NIGERIA",1289.91,2024,4.93541666880638,0.703452295769167,132,5.63886896457555
86850099999,-21.2166666,-43.7666666,"BARBACENA, BRAZIL",1156.5,2024,4.92723313144522,0.715691742890003,184,5.64292487433522
66318099999,-12.808878,15.760547,"HUAMBO, ANGOLA",1702.91,2024,5.19607893791622,0.44695896803914,335,5.64303790595536
60060099999,29.368983,-10.180267,"SIDI IFNI, MOROCCO",59,2024,5.17979943891457,0.476646948512198,351,5.65644638742676
67107099999,-19.8166667,47.0666667,"ANTSIRABE, MADAGASCAR",1532,2024,5.1751287354029,0.507871271659453,243,5.68300000706235
60155099999,33.556981,-7.660492,"ANFA, MOROCCO",61.87,2024,5.21691818006277,0.564338440011965,352,5.78125662007474
60035099999,28.452717,-13.863761,"FUERTEVENTURA, SPAIN",25.29,2024,5.20202938236678,0.610603434431459,355,5.81263281679824
84752099999,-16.341072,-71.583083,"RODRIGUEZ BALLON, PERU",2561.84,2024,5.45308988764046,0.371841105098499,356,5.82493099273895
86872099999,-22.75,-45.6,"CAMPOS DO JORDAO, BRAZIL",1581.5,2024,5.24899942035951,0.578882828174216,355,5.82788224853373
84542099999,-9.347444,-77.598392,"COMANDANTE FAP GERMAN ARIAS GRAZIANI, PERU",2749.9,2024,5.29412803927877,0.584924473872155,187,5.87905251315093
68587099999,-31.0666666,30.2333333,"PORT EDWARD, SOUTH AFRICA",12,2024,5.32552237132168,0.601489911650297,355,5.92701228297198
66390099999,-14.924733,13.575022,"LUBANGO, ANGOLA",1761.13,2024,5.52686146933811,0.461298024579631,346,5.98815949391774
48302099999,19.9166666,99.0333333,"DOI ANG KHANG, THAILAND",1530,2024,5.38213995738259,0.623313511105431,294,6.00545346848802
64184099999,-1.6833333,29.2333333,"GOMA, ZAIRE",1552,2024,5.39676559654849,0.6564444525513,160,6.05321004909979
84686099999,-13.535722,-71.938781,"TENIENTE ALEJANDRO VELASCO ASTETE INTERNATIONAL, PERU",3310.12,2024,5.51036414565827,0.54779062021245,357,6.05815476587072
78641099999,14.583272,-90.527475,"LA AURORA, GUATEMALA",1509.36,2024,5.57943590288853,0.491525811507109,355,6.07096171439564
76680099999,19.4,-99.1833333,"MEXICO CENTRAL D.F., MEXICO",2303,2024,5.53353034506199,0.549130306048673,352,6.08266065111066
76683099999,19.3166666,-98.25,"TLAXCALA TLAX., MEXICO",2248,2024,5.61346245709549,0.47267019992474,351,6.08613265702023
42574099999,24.5333333,81.3,"REWA, INDIA",299,2024,4.27254484663553,1.82092378600033,25,6.09346863263586
76679399999,19.436303,-99.072097,"LICENCIADO BENITO JUAREZ INTERNATIONAL, MEXICO",2229.91,2024,5.48021670642409,0.618046604610073,355,6.09826331103416
84773099999,-17.695036,-71.343964,"ILO, PERU",21.94,2024,5.59533132779711,0.513370221883395,304,6.10870154968051
83689099999,-21.267167,-43.761056,"MAJOR BRIGADEIRO DOORGAL BORGES, BRAZIL",1114.65,2024,5.58811283214386,0.564137725450757,349,6.15225055759462
84147099999,-1.212067,-78.574636,"CHACHOAN, ECUADOR",2591.4,2024,5.6679277819893,0.508933203072263,338,6.17686098506156
76632099999,20.1333333,-98.75,"PACHUCA HGO., MEXICO",2435,2024,5.53516323726516,0.642809336999654,324,6.17797257426481
63887099999,-7.668633,35.752114,"IRINGA, TANZANIA",1425.85,2024,5.70504449170311,0.490866996621725,344,6.19591148832484
85410099999,-26.467,-69.433,"CHORRILLOS, CHILE",3200,2024,5.58135369159031,0.625642760369041,236,6.20699645195935
84782099999,-18.053333,-70.275833,"CORONEL CARLOS CIRIANI SANTA ROSA INTERNATIONAL, PERU",468.78,2024,5.75642612322778,0.482334585524543,357,6.23876070875232
86871099999,-22.3166666,-45.3666666,"MARIA DA FE, BRAZIL",1277.5,2024,5.74293614246556,0.546245081116623,261,6.28918122358218
78627099999,15.3166667,-91.4666667,"HUEHUETENANGO, GUATEMALA",1901,2024,5.8027573944706,0.520663813413314,353,6.32342120788391
60285099999,28.448194,-11.161347,"PLAGE BLANCHE, MOROCCO",199.03,2024,5.67864802273132,0.706933763536628,353,6.38558178626795
61901099999,-15.9333333,-5.6666666,"ST. HELENA IS., ST. HELENA",436,2024,5.86195965417868,0.540149376376818,347,6.40210903055549
85242099999,-17.962589,-67.076236,"JUAN MENDOZA, BOLIVIA",3702.1,2024,5.79449633960025,0.608653960861794,349,6.40315030046204
96751099999,-6.7,106.9333333,"BOGOR CITEKO, INDONESIA",-999.9,2024,5.94895274131389,0.476364451806902,339,6.42531719312079
68285099999,-25.6916667,30.0344444,"BELFAST, SOUTH AFRICA",1879,2024,5.63545610975065,0.822780491040477,181,6.45823660079112
91848099999,-21.895833,-157.90666,"MANGAIA, COOK ISLANDS",14,2024,5.56947196509071,0.9486416852191,231,6.51811365030981
68920099999,-34.8333333,20.0166666,"CAPE AGULHAS, SOUTH AFRICA",14,2024,5.92767712345465,0.603644608746251,352,6.5313217322009
94995099999,-31.54222,159.07861,"LORD HOWE ISLAND AERO, AUSTRALIA",7,2024,5.91274651294722,0.628126999553655,353,6.54087351250087
68837099999,-33.8,25.6666666,"NGQURA COEGA, SOUTH AFRICA",46,2024,5.92539944361112,0.616469939990682,342,6.54186938360181
72293453121,33.21946,-117.34962,"OCEANSIDE MUNICIPAL AIRPORT, CA US",9.1,2024,5.98475638155923,0.593064895489318,366,6.57782127704855
64380099999,-2.4666666,28.9166666,"KAMEMBE, RWANDA",1587.4,2024,5.83807540304913,0.799917336309609,132,6.63799273935874
80222399999,4.812333,-74.064919,"GUAYMARAL, COLOMBIA",2557.27,2024,6.18685504157706,0.460160153162873,337,6.64701519473993
68921099999,-34.8,20.0666666,"STRUISBAAI, SOUTH AFRICA",4,2024,6.11776241828308,0.598312720816985,348,6.71607513910006
97686099999,-4.102511,138.957372,"WAMENA, INDONESIA",1549.9,2024,6.35240791949731,0.410378771935001,336,6.76278669143231
60638099999,28.447028,7.552411,"TIN FOUYE, ALGERIA",480.06,2024,5.65242003108342,1.12153847371297,76,6.77395850479638
80222099999,4.701594,-74.146947,"ELDORADO INTERNATIONAL, COLOMBIA",2548.43,2024,6.40308123249299,0.415789323832553,357,6.81887055632555
44474099999,27.35,87.6666667,"TAPLEJUNG, NEPAL",1732,2024,6.14536941915359,0.778006795235726,203,6.92337621438932
67477099999,-11.9,31.4333333,"MPIKA, ZAMBIA",1402,2024,4.17524495172374,2.7495279713155,13,6.92477292303924
43476099999,6.8166666,80.9666666,"DIYATALAWA, SRI LANKA",1250,2024,5.90809828714401,1.01780623486328,87,6.92590452200729
61995099999,-20.3,57.4666666,"VACOAS MAURITIUS, MAURITIUS",425,2024,6.19996807706225,0.735377205774751,339,6.935345282837
68931099999,-34.090279,23.327778,"PLETTENBERG BAY, SOUTH AFRICA",141.73,2024,6.20642257282701,0.74655186393485,261,6.95297443676186
44462099999,27.3,86.5,"OKHALDHUNGA, NEPAL",1720,2024,6.20263084280254,0.770933631848837,200,6.97356447465138
76665599999,19.849944,-101.0255,"GENERAL FRANCISCO J MUJICA INTERNATIONAL, MEXICO",1838.85,2024,6.34111447875704,0.636194664990382,355,6.97730914374742
63340099999,9.0833333,36.45,"LEKEMTE, ETHIOPIA",2080,2024,4.09728207461026,2.89833907507008,10,6.99562114968034
68843099999,-33.5666666,26.8833333,"PORT ALFRED AIRPORT, SOUTH AFRICA",84,2024,6.39236133638684,0.64094988599769,354,7.03331122238453
84006099999,-1.5,-78.067,"RIO AMAZONAS, ECUADOR",1043,2024,6.33029202921811,0.717323006692532,316,7.04761503591064
84531099999,-9.149614,-78.52385,"TENIENTE JAIME A DE MONTREUIL MORALES, PERU",21.03,2024,6.49625258105178,0.571229155470241,251,7.06748173652202
76423599999,24.124194,-104.528014,"DURANGO INTERNATIONAL, MEXICO",1860.49,2024,6.50545566249865,0.580021634011674,355,7.08547729651033
76685099999,19.158144,-98.371447,"HERMANOS SERDAN INTERNATIONAL, MEXICO",2243.63,2024,6.42424081566194,0.671061883983194,354,7.09530269964513
41114099999,18.297286,42.803536,"KING KHALED AB, SAUDI ARABIA",2065.93,2024,6.52345758047718,0.577860267274454,356,7.10131784775164
68267299999,-26.348257,27.778303,"JOHANNESBURG BARAGWANATH, SOUTH AFRICA",1626,2024,6.50427393536632,0.604639888776741,347,7.10891382414306
84501099999,-8.081411,-79.108761,"CAPITAN CARLOS MARTINEZ DE PINILLOS, PERU",32.3,2024,6.67051578810127,0.444639628094261,357,7.11515541619553
72290023188,32.7336,-117.1831,"SAN DIEGO INTERNATIONAL AIRPORT, CA US",4.6,2024,6.53879394868715,0.634075740189982,366,7.17286968887713
76848099999,16.25,-92.1333333,"COMITAN CHIS., MEXICO",1646,2024,6.56761755596831,0.617472391847233,350,7.18508994781554
76634099999,20.0833333,-98.3666666,"TULANCINGO HGO., MEXICO",2181,2024,6.45560468778051,0.738945099977135,352,7.19454978775765
86851099999,-21.7666666,-43.3666666,"JUIZ DE FORA, BRAZIL",951.5,2024,6.43352775778055,0.763596280883783,331,7.19712403866433
95635099999,-33.9333333,120.1333333,"HOPETOWN NORTH, AUSTRALIA",27,2024,6.5309119867319,0.67999653714587,350,7.21090852387777
60270099999,29.6833333,-9.7333333,"TIZNIT, MOROCCO",261,2024,6.56638766741721,0.704687555306025,326,7.27107522272323
68287099999,-24.9333333,30.85,"GRASKOP, SOUTH AFRICA",1436,2024,6.51550383064929,0.756456213863779,313,7.27196004451306
67775099999,-17.930219,31.094329,"ROBERT GABRIEL MUGABE INTERNATIONAL HARARE, ZIMBABWE",1489.56,2024,6.7371531102805,0.540468839725865,350,7.27762195000636
86921099999,-24.7833333,-49.9833333,"CASTRO, BRAZIL",1008.86,2024,6.10580908995632,1.18093982557745,113,7.28674891553377
68267099999,-26.5,29.9833333,"ERMELO, SOUTH AFRICA",1766,2024,6.60429979352385,0.687828829140873,329,7.29212862266472
43111099999,17.9333333,73.6666666,"MAHABALESHWAR, INDIA",1382,2024,6.69655174026177,0.599981789230342,304,7.29653352949211
68918099999,-34.4333333,19.2166666,"HERMANUS, SOUTH AFRICA",14,2024,6.67439038981933,0.642965946436774,315,7.3173563362561
94938099999,-35.35,150.4833333,"ULLADULLA AWS, AUSTRALIA",37,2024,6.52821285090301,0.80032143444022,295,7.32853428534323
76577399999,20.9833333,-101.4833333,"GUANAJUATO INTERNATIONAL, MEXICO",1815.38,2024,6.72392818767651,0.670924905073013,351,7.39485309274952
84564099999,-9.878811,-76.204797,"ALFEREZ FAP D F FERNANDINI, PERU",1850.13,2024,7.00341809334478,0.391666507895258,354,7.39508460124004
72297793184,33.67975,-117.86746,"SANTA ANA JOHN WAYNE AIRPORT, CA US",13,2024,6.72617675040171,0.671956061116354,366,7.39813281151806
63460099999,7.10131,38.39664,"AWASSA LAKE, ETHIOPIA",1739,2024,5.28570526385501,2.11374506893865,9,7.39945033279366
60120099999,34.3,-6.6,"KENITRA RMAFB, MOROCCO",6,2024,6.70585254141688,0.696995608573286,321,7.40284814999017
84452099999,-6.787475,-79.828097,"CAPT JOSE A QUINONES GONZALES INTERNATIONAL, PERU",29.56,2024,6.59330325629725,0.825649834325124,357,7.41895309062238
60034099999,23.718294,-15.931994,"DAKHLA, WESTERN SAHARA",6.09,2024,6.66000407848264,0.759450757474071,353,7.41945483595671
63729099999,-1.3333333,31.8166667,"BUKOBA, TANZANIA",1137,2024,6.88886913020473,0.530772657480221,344,7.41964178768495
68361099999,-26.15,28,"JOHANNESBURG BOT. GARDENS, SOUTH AFRICA",1626,2024,6.81444889148377,0.608271162105706,345,7.42272005358948
42516099999,25.5666666,91.8833333,"SHILLONG, INDIA",1598,2024,6.45275235872079,0.977974319263254,173,7.43072667798405
56739099999,24.9833333,98.5,"TENGCHONG, CHINA",1696.9,2024,6.7696881535185,0.668508472030945,342,7.43819662554945
91066022701,28.2,-177.38333,"MIDWAY ISLAND HENDERSON FIELD AIRPORT, UM MQ",5.5,2024,6.08220338983051,1.35992315095088,118,7.44212654078139
72292603154,33.30424,-117.35508,"CAMP PENDLETON MCAS, CA US",21.4,2024,6.72165027681295,0.722965546621955,362,7.44461582343491
68591099999,-30.85,30.3333333,"MARGATE, SOUTH AFRICA",154,2024,6.7463639000717,0.711652253947471,346,7.45801615401917
60135099999,34.051467,-6.751519,"SALE, MOROCCO",84.12,2024,6.68773754007326,0.783023900592585,356,7.47076144066585
95937099999,-35.9,150.15,"MORUYA AIRPORT, AUSTRALIA",4,2024,6.78753886309732,0.690542691876565,355,7.47808155497389
68273099999,-25.8333333,29.1833333,"WITBANK, SOUTH AFRICA",1550,2024,6.82712837744204,0.683148747733477,293,7.51027712517552
68674099999,-31.606027,29.521721,"PORT ST JOHNS, SOUTH AFRICA",373.98,2024,6.60853788955267,0.912208156860329,242,7.520746046413
94647099999,-31.6797,128.8792,"EUCLA, AUSTRALIA",102.3,2024,6.75281122554945,0.768844665311192,353,7.52165589086064
2635099999,55.5666666,13.0666666,"MALMO, SWEDEN",21,2024,6.37454675201326,1.15038249884503,102,7.52492925085829
76573099999,21.35,-101.9166666,"LAGOS DE MORENO JAL., MEXICO",1942,2024,6.70728405769843,0.829073087119107,193,7.53635714481754
68589099999,-29.2666666,29.5166666,"GIANTS CASTLE, SOUTH AFRICA",1763,2024,6.70469068891911,0.832554052413309,273,7.53724474133241
72287493134,34.0236,-118.2911,"LOS ANGELES DOWNTOWN USC, CA US",54.6,2024,6.68271706169712,0.873180703647187,141,7.5558977653443
76471099999,23.6333333,-103.65,"SOMBRERETE ZAC., MEXICO",2351,2024,6.81545465500317,0.741419734691602,354,7.55687438969477
44424099999,29.2833333,82.1666667,"JUMLA, NEPAL",2300,2024,6.72814688341181,0.839745727057194,200,7.567892610469
56951099999,23.95,100.2166666,"LINCANG, CHINA",1503,2024,6.98665093988234,0.584793617951235,347,7.57144455783357
8524099999,33.073386,-16.349975,"PORTO SANTO, PORTUGAL",103.93,2024,6.79755687284626,0.779743992102495,355,7.57730086494876
56751099999,25.7,100.1833333,"DALI, CHINA",1992,2024,6.93541003102616,0.644298695324678,343,7.57970872635083
84623199999,-11.783144,-75.473394,"FRANCISCO CARLE, PERU",3363.16,2024,7.0613832853026,0.526395246560618,347,7.58777853186322
72290303131,32.81453,-117.13747,"SAN DIEGO MONTGOMERY FIELD, CA US",127.5,2024,6.92610082483126,0.661718009706783,366,7.58781883453804
86929099999,-25.5666666,-51.0833333,"INACIO MARTINS, BRAZIL",1261.5,2024,6.8627848837307,0.737339753251423,344,7.60012463698213
41112099999,18.240367,42.656625,"ABHA, SAUDI ARABIA",2090.31,2024,6.96045599136761,0.646343151706906,356,7.60679914307452
84444099999,-6.201806,-77.856064,"CHACHAPOYAS, PERU",2539.89,2024,7.08901734104046,0.522444083893956,346,7.61146142493442
94644099999,-32.2,127.5333333,"RED ROCKS POINT, AUSTRALIA",3,2024,6.97434542671395,0.650890480375604,345,7.62523590708956
72295603167,33.92353,-118.33291,"HAWTHORNE MUNICIPAL AIRPORT, CA US",16.6,2024,6.91584028017279,0.728475786956954,366,7.64431606712974
91948099999,-23.1333333,-134.9666666,"MANGAREVA, FRENCH POLYNESIA",89,2024,6.84715123702499,0.802039437801718,355,7.6491906748267
84691099999,-13.744864,-76.220284,"PISCO INTERNATIONAL, PERU",11.88,2024,7.11527071094014,0.542840322357178,357,7.65811103329732
84217099999,-2.299167,-78.12075,"CORONEL E CARVAJAL, ECUADOR",1052.16,2024,7.10437890597828,0.606116757454972,353,7.71049566343325
95647099999,-34.95,116.7166666,"NORTH WALPOLE, AUSTRALIA",74,2024,6.94675856644624,0.803930200688497,277,7.75068876713473
94638099999,-33.8333333,121.8925,"ESPERANCE, AUSTRALIA",27,2024,7.06237567688999,0.710092256011829,355,7.77246793290182
68939099999,-34.2166666,24.85,"CAPE ST FRANCIS, SOUTH AFRICA",7,2024,7.05065263508846,0.736518030493129,332,7.78717066558159
72290403178,32.57583,-116.99391,"SAN DIEGO BROWN FIELD, CA US",158.9,2024,7.11478129021202,0.676396423126365,365,7.79117771333839
60105099999,35.15,-6.1,"LARACHE, MOROCCO",49,2024,7.04589993148307,0.74969538122056,348,7.79559531270363
84088099999,-0.35,-78.55,"IZOBAMBA, ECUADOR",3058,2024,6.9639534883721,0.83400582854896,86,7.79795931692106
60001099999,27.814847,-17.887056,"HIERRO, SPAIN",31.39,2024,6.91717641082953,0.884324018206967,355,7.8015004290365
91197721508,19.76,-155.55361,"BRADSHAW ARMY AIR FIELD, HI US",1798.3,2024,6.94462424886439,0.871223496178997,366,7.81584774504338
67881099999,-18.5333333,32.1333333,"RUSAPE, ZIMBABWE",1430,2024,7.17881278359085,0.658808638163192,280,7.83762142175405
67765099999,-16.8333333,29.6166667,"KAROI, ZIMBABWE",1344,2024,7.01101640158765,0.842044658418887,178,7.85306106000654
95929099999,-36.9166666,149.9,"MERIMBULA AIRPORT, AUSTRALIA",2,2024,7.16962569285085,0.694473873134203,341,7.86409956598505
68098099999,-22.979889,14.645331,"WALVIS BAY, NAMIBIA",91.13,2024,6.95944603385111,0.915749318208353,318,7.87519535205947
86846099999,-21.9166666,-46.3833333,"CALDAS, BRAZIL",1151.5,2024,7.25747434405684,0.618678823686193,352,7.87615316774304
94405099999,-28.3,113.6,"NORTH ISLAND, AUSTRALIA",11,2024,7.20730348563447,0.675520542820396,347,7.88282402845487
56748099999,25.1166666,99.1833333,"BAOSHAN, CHINA",1649,2024,7.31766231875118,0.594255370997456,344,7.91191768974864
72290993115,32.56797,-117.11715,"IMPERIAL BEACH REAM FIELD NAS, CA US",7.2,2024,7.01524340918343,0.898892262907496,206,7.91413567209093
68408099999,-29.2333333,16.8666666,"PORT NOLLOTH, SOUTH AFRICA",10,2024,7.31017956259702,0.613980626782949,351,7.92416018937997
78734099999,13.0833333,-85.9833333,"JINOTEGA, NICARAGUA",985,2024,7.23370372863385,0.690534385572306,308,7.92423811420616
63641099999,2.3,37.9,"MARSABIT, KENYA",1345,2024,7.37538313146201,0.551633903263304,344,7.92701703472531
72288593197,34.02099,-118.44712,"SANTA MONICA MUNICIPAL AIRPORT, CA US",53.3,2024,7.26371395562496,0.723943567250259,366,7.98765752287522
64387099999,-1.968628,30.13945,"KIGALI INTERNATIONAL, RWANDA",1481.02,2024,7.48341565973096,0.505556862115071,355,7.98897252184603
91954099999,-23.365353,-149.524072,"TUBUAI, FRENCH POLYNESIA",2.13,2024,7.22591154359781,0.763506370085137,338,7.98941791368295
68613099999,-32.0333333,18.3333333,"LAMBERTS BAY, SOUTH AFRICA",94,2024,7.21577761285277,0.775131587853556,345,7.99090920070633
68375099999,-27.4333333,29.1666666,"VREDE, SOUTH AFRICA",1671,2024,7.16726321127782,0.830833171876019,305,7.99809638315384
68813099999,-33.8,18.3666666,"ROBBEN ISLAND, SOUTH AFRICA",3,2024,7.29711767507962,0.729334058261041,298,8.02645173334066
67983099999,-20.2,32.6166667,"CHIPINGE, ZIMBABWE",1132,2024,7.14184612144003,0.885219114650234,196,8.02706523609026
95749099999,-34.65,150.85,"KIAMA BOMBO HEADLAND, AUSTRALIA",16,2024,7.25774139435869,0.773980224863316,344,8.03172161922201
72295503174,33.80338,-118.33961,"TORRANCE, CA US",29.6,2024,7.31130984388886,0.73005467877078,362,8.04136452265964
68999099999,-33.9666666,18.6,"CT AWS, SOUTH AFRICA",46,2024,7.32547180873461,0.722367901093763,326,8.04783970982837
63705099999,0.042386,32.443503,"ENTEBBE INTERNATIONAL, UGANDA",1152.75,2024,7.49142445139403,0.557586222994341,351,8.04901067438837
68471099999,-28.3666666,29.3833333,"VAN REENEN, SOUTH AFRICA",1680,2024,7.30824652651972,0.767368848200834,355,8.07561537472055
63403099999,8.1666667,35.55,"GORE, ETHIOPIA",1974,2024,4.78,3.31133753374675,5,8.09133753374675
63687099999,0.271342,34.787297,"KAKAMEGA, KENYA",1530.09,2024,7.63760792367848,0.476037554726835,339,8.11364547840532
66285099999,-11.768086,19.897672,"LUENA, ANGOLA",1328.92,2024,7.50380170608444,0.614818149132083,208,8.11861985521652
2443099999,59.65,17.1166666,"ENKOPING, SWEDEN",26,2024,6.74849093103071,1.37184200799897,114,8.12033293902968
94580099999,-27.9333333,153.4333333,"GOLD COAST SEAWAY, AUSTRALIA",3,2024,7.33080898132546,0.809444674483221,355,8.14025365580868
68363099999,-26.2,28.45,"SPRINGS, SOUTH AFRICA",1588,2024,7.45915220830426,0.682008163070762,303,8.14116037137502
2611099999,56.0333333,12.7666666,"HELSINGBORG, SWEDEN",44,2024,7.05308880729242,1.09512040402936,116,8.14820921132177
2623099999,55.8666666,13.6666666,"HORBY, SWEDEN",114,2024,7.04003219136028,1.11021427996904,116,8.15024647132932
67867099999,-19.436394,29.861911,"GWERU THORNHILL, ZIMBABWE",1426.46,2024,7.36091146529965,0.792748891249709,207,8.15366035654936
68267499999,-26.248411,28.397508,"SPRINGS, SOUTH AFRICA",1627.63,2024,7.42528702902308,0.732789564366904,306,8.15807659338998
72392523190,34.4241,-119.84249,"SANTA BARBARA MUNICIPAL AIRPORT, CA US",2.5,2024,7.47352898934021,0.705550884259715,366,8.17907987359992
72290693112,32.69219,-117.20983,"NORTH ISLAND NAS, CA US",4.4,2024,7.49338493576767,0.699684056297661,355,8.19306899206534
84628099999,-12.021889,-77.114319,"JORGE CHAVEZ INTERNATIONAL, PERU",34.44,2024,7.64789363734647,0.549879738097667,357,8.19777337544414
72297553141,33.79,-118.05194,"LOS ALAMITOS ARMY AIR FIELD, CA US",10.7,2024,7.50064742414278,0.713135546907545,366,8.21378297105033
2648099999,56.85,14.8333333,"VAXJO, SWEDEN",200,2024,7.04887917723942,1.16505328088033,116,8.21393245811975
60185099999,32.2833333,-9.2333333,"SAFI, MOROCCO",45,2024,7.33722122522541,0.882684416654735,348,8.21990564188014
40022099999,35.5333333,35.7666666,"LATTAKIA, SYRIA",7,2024,6.78518518518519,1.45867766605632,27,8.24386285124151
68449099999,-28.8166666,27.9,"FICKSBURG, SOUTH AFRICA",1614,2024,7.55898220599435,0.689178889951983,349,8.24816109594633
76001399999,32.541064,-116.970158,"GENERAL ABELARDO L RODRIGUEZ INTERNATIONAL, MEXICO",149.04,2024,7.55273727889269,0.702936005410495,355,8.25567328430319
68264099999,-25.83,28.2225,"WATERKLOOF AFB, SOUTH AFRICA",1505.71,2024,7.31965480285943,0.936916395009787,231,8.25657119786922
94802099999,-34.9414,117.8022,"ALBANY AIRPORT, AUSTRALIA",69,2024,7.56604914751398,0.721782498244042,355,8.28783164575803
48921099999,21.6333333,101.8833333,"BOUNNEUA, LAOS",923,2024,7.43464999302841,0.857614737770903,320,8.29226473079932
2629099999,56.2833333,13.9333333,"HASTVEDA, SWEDEN",10,2024,7.10417486120352,1.19513144838847,117,8.29930630959199
94996099999,-29.041625,167.938742,"NORFOLK ISLAND INTERNATIONAL, NORFOLK ISLAND",113.08,2024,7.58330499976249,0.725276239578416,355,8.30858123934091
2487099999,59.35,18.7333333,"SKARPO A, SWEDEN",22,2024,6.92830188679245,1.39337117657772,106,8.32167306337017
91596099999,-22.588856,167.455969,"ILE DES PINS, NEW CALEDONIA",96.01,2024,7.44948738214069,0.880136380880968,352,8.32962376302166
84160099999,-1.35,-78.6,"QUEROCHACA, ECUADOR",2940,2024,7.48306451612903,0.850788973780802,124,8.33385348990984
67225099999,-14.917,33.617,"FURANCUNGO, MOZAMBIQUE",1262,2024,7.65588876255169,0.679353988491859,328,8.33524275104355
86761099999,-17.7,-42.3833333,"CAPELINHA, BRAZIL",933.5,2024,7.5639802144968,0.781390610091124,355,8.34537082458793
94749099999,-34.3833333,150.9333333,"BELLAMBI AWS, AUSTRALIA",10,2024,7.5508942679753,0.813090132633465,306,8.36398440060877
42114099999,30.4,78.4833333,"TEHRI, INDIA",770,2024,7.5230284279098,0.848686801681061,317,8.37171522959086
2559099999,57.7,16.4666666,"GLADHAMMAR, SWEDEN",31,2024,6.96614232878695,1.41380112712607,120,8.37994345591302
94596099999,-28.8333333,153.55,"BALLINA AIRPORT AWS, AUSTRALIA",2,2024,7.62514028744513,0.762494630015985,355,8.38763491746112
78631099999,15.468958,-90.406742,"COBAN, GUATEMALA",1322.52,2024,7.72944678605737,0.662895128377173,354,8.39234191443454
68593099999,-29.770606,31.058406,"VIRGINIA, SOUTH AFRICA",6.09,2024,7.54184447113387,0.857044746083274,342,8.39888921721715
86737099999,-16.7833333,-47.6166666,"CRISTALINA, BRAZIL",1203.5,2024,7.7926839094977,0.608112320331574,355,8.40079622982927
63619099999,3.5333333,39.05,"MOYALE LOWER ODA, KENYA",1097,2024,7.6406400909896,0.761381981085489,239,8.40202207207508
72292703177,33.12993,-117.27651,"CARLSBAD MCCLELLAN PALOMAR AIRPORT, CA US",95.3,2024,7.7179842414487,0.686752788507492,363,8.40473702995619
2661099999,56.8333333,15.4666666,"KOSTA ORREFORS, SWEDEN",232,2024,7.0520564096603,1.35590952380209,116,8.40796593346239
67083099999,-18.796936,47.478869,"IVATO, MADAGASCAR",1279.55,2024,7.7194744987235,0.696322526078959,355,8.41579702480246
91170022508,21.48722,-158.02806,"WHEELER ARMY AIR FIELD 810.1, HI US",257.9,2024,7.89235492000957,0.529208630584117,366,8.42156355059369
72289523243,34.66667,-120.46667,"LOMPOC AIRPORT, CA US",26.8,2024,7.72689847376885,0.702180376788096,341,8.42907885055694
60517099999,35.1,-1.8666666,"GHAZAOUET, ALGERIA",5,2024,7.70810150973341,0.730719177419909,346,8.43882068715332
81956099999,-8.2333333,-35.9833333,"CARUARU, BRAZIL",551.5,2024,7.77943718601,0.678654850846722,324,8.45809203685672
2622099999,56.85,13.8833333,"LJUNGBY, SWEDEN",148,2024,7.32015419644338,1.14151694624862,116,8.46167114269199
83419099999,-16.229153,-48.964267,"BASE AEREA, BRAZIL",1136.29,2024,7.90597304422667,0.559432098390854,355,8.46540514261753
72297023129,33.81177,-118.14718,"LONG BEACH DAUGHERTY AIRPORT, CA US",10.2,2024,7.6331661936114,0.833157474416635,362,8.46632366802803
63962099999,-10.6833333,35.5833333,"SONGEA, TANZANIA",1067,2024,7.82072346464936,0.67624384140472,343,8.49696730605408
8509099999,38.761842,-27.090797,"LAJES, PORTUGAL",54.86,2024,7.87322025834423,0.641975684185793,353,8.51519594253002
68927099999,-34.3666666,21.3833333,"STILBAAI, SOUTH AFRICA",103,2024,7.59969692218126,0.916111695753744,351,8.515808617935
56786099999,25.5833333,103.8333333,"ZHANYI, CHINA",1900,2024,7.7108851031889,0.807998270024974,343,8.51888337321387
60461099999,35.7,-0.65,"ORAN PORT, ALGERIA",22,2024,7.82517926655675,0.699328625927231,338,8.52450789248398
86823099999,-20.55,-43.75,"OURO BRANCO, BRAZIL",1062.5,2024,7.64494701501337,0.889631582583024,268,8.53457859759639
64360099999,-11.591333,27.530889,"LUBUMBASHI INTERNATIONAL, ZAIRE",1309.11,2024,7.45734132070741,1.08907398403004,123,8.54641530473744
2486099999,59.3666666,17.5166666,"ADELSO, SWEDEN",6,2024,7.17413020812337,1.37331255655069,114,8.54744276467406
64893099999,5.636919,10.750817,"FOUMBAN NKOUNJA, CAMEROON",1207.92,2024,7.59701510410601,0.960742571806728,49,8.55775767591274
2489099999,59.0666666,18.1166666,"BERGA, SWEDEN",3,2024,7.02452170148028,1.56086314722506,111,8.58538484870534
44404099999,29.3,80.5833333,"DADELDHURA, NEPAL",1848,2024,7.67182968456291,0.935136127595189,203,8.6069658121581
95931099999,-36.6666666,149.8166666,"BEGA AWS, AUSTRALIA",42,2024,7.77496604271933,0.836072829445091,318,8.61103887216442
56651099999,26.8333333,100.2166667,"LIJING, CHINA",2382,2024,7.80545930353402,0.806305481806257,343,8.61176478534028
93057099999,-35.7666666,174.3666666,"WHANGAREI AERODROME, NEW ZEALAND",38,2024,7.91375862943957,0.704463015209431,355,8.61822164464901
2561099999,58.65,15.4333333,"KVARN, SWEDEN",10,2024,7.34977978914632,1.27738651873035,119,8.62716630787667
93021099999,-35.25,173.9,"KERIKERI AERO AWS, NEW ZEALAND",151,2024,7.9296692104041,0.703578508873601,355,8.6332477192777
68353099999,-26.5666666,27.95,"VEREENIGING, SOUTH AFRICA",1481,2024,7.90683562030771,0.730297364537393,351,8.6371329848451
95748099999,-34.5666666,150.7833333,"WOLLONGONG AIRPORT, AUSTRALIA",8,2024,7.86417977655175,0.785461188990782,355,8.64964096554253
68403099999,-28.575001,16.533333,"ALEXANDER BAY, SOUTH AFRICA",29.87,2024,7.8106785941224,0.84435639909668,311,8.65503499321908
2456099999,60.2333333,17.9,"FILM, SWEDEN",35,2024,7.2069895429451,1.46021959006529,115,8.66720913301039
94570099999,-26.3833333,153.0333333,"TEWANTIN RSL PARK, AUSTRALIA",7,2024,7.76644085874734,0.903468435861578,355,8.66990929460892
68580099999,-29.5333333,30.2833333,"CEDARA, SOUTH AFRICA",1071,2024,7.91676257216499,0.755923316466898,355,8.67268588863189
72297603166,33.87154,-117.98561,"FULLERTON MUNICIPAL AIRPORT, CA US",26.3,2024,7.81545801635108,0.859763138395073,366,8.67522115474615
68718099999,-33.8,19.9,"ROBERTSON, SOUTH AFRICA",204,2024,7.77503983085118,0.903604323577541,206,8.67864415442872
41434099999,14.5833333,44.4166666,"DHAMAR, YEMEN",2425,2024,7.01,1.6727258639186,10,8.6827258639186
99801399999,32.5745,-117.127,"TIJUANA RIVER RESERVE, CA US",4,2024,8.06414434690066,0.619572233011019,355,8.68371657991168
60252099999,30.324997,-9.413067,"AL MASSIRA, MOROCCO",76.2,2024,7.92922335457493,0.760864621272036,355,8.69008797584696
94589099999,-29.4333333,153.3666666,"YAMBA PILOT STATION, AUSTRALIA",30,2024,7.95531657380533,0.749338333370393,355,8.70465490717573
94766099999,-33.9,151.1166666,"CANTERBURY RACECOURSE, AUSTRALIA",3,2024,7.92711808191158,0.781139292954367,355,8.70825737486595
72293193107,32.86667,-117.13333,"SAN DIEGO MIRAMAR NAS, CA US",145.4,2024,7.97952268728378,0.736275999970576,364,8.71579868725435
68579099999,-30.75,30.2666666,"PADDOCK, SOUTH AFRICA",515,2024,7.88891680376856,0.843432456419996,345,8.73234926018856
95572099999,-26.65,152.9333333,"NAMBOUR DPI HILLSIDE, AUSTRALIA",33,2024,7.87449199254954,0.872466597503783,352,8.74695859005332
2481099999,59.9166666,16.6833333,"SALA, SWEDEN",58,2024,7.20756089292897,1.54057765638276,114,8.74813854931174
83842099999,-25.405078,-49.232036,"BACACHERI, BRAZIL",931.77,2024,7.94922831091095,0.819487173037149,355,8.76871548394809
95551099999,-27.55,151.9166666,"TOOWOOMBA AIRPORT, AUSTRALIA",642,2024,8.04461584329883,0.728055740043393,355,8.77267158334223
60107099999,35.177103,-3.839525,"CHERIF EL IDRISSI, MOROCCO",27.12,2024,7.97005838309452,0.831709504475651,355,8.80176788757017
68712099999,-32.8333333,17.85,"CAPE COLUMBINE, SOUTH AFRICA",67,2024,8.06819875628673,0.742704833307782,330,8.81090358959451
95940099999,-35.0833333,150.8,"PT PERPENDICULAR AWS, AUSTRALIA",84,2024,8.05503973792491,0.765039258899142,355,8.82007899682405
76390099999,25.3666666,-101.0166666,"SALTILLO COAH., MEXICO",1790,2024,8.02610459212213,0.799342878868525,354,8.82544747099066
68474099999,-28.6833333,28.95,"ROYAL NATAL NAT. PARK, SOUTH AFRICA",1392,2024,7.94174652858356,0.886522908551921,265,8.82826943713548
68819099999,-33.9333333,18.4166666,"MOLTENO RESERVIOR, SOUTH AFRICA",97,2024,8.08713280639145,0.759725051796107,348,8.84685785818756
86715099999,-15.7833333,-47.9333333,"BRASILIA, BRAZIL",1161.04,2024,8.27535363811193,0.576332050224126,355,8.85168568833606
68577099999,-30.5,29.4,"KOKSTAD, SOUTH AFRICA",1443,2024,8.04428826248985,0.811379736387232,341,8.85566799887708
94372099999,-21.6666666,150.2666666,"MIDDLE PERCY ISLAND, AUSTRALIA",209,2024,8.00931764755649,0.849825878649861,355,8.85914352620635
94774099999,-32.9166666,151.7833333,"NEWCASTLE NOBBYS SIGNAL STATION, AUSTRALIA",33,2024,7.98097533532387,0.881780626416738,346,8.86275596174061
72295023174,33.93816,-118.3866,"LOS ANGELES INTERNATIONAL AIRPORT, CA US",29.7,2024,8.00936637783034,0.867091010143729,366,8.87645738797407
68651099999,-31.3333333,27.85,"ELLIOT, SOUTH AFRICA",1463,2024,8.06163778177836,0.825246426248365,333,8.88688420802673
68513099999,-30.2,17.2833333,"KOINGNAAS, SOUTH AFRICA",99,2024,8.176682885644,0.714557495108513,344,8.89124038075251
2432099999,59.2333333,15.05,"OREBRO, SWEDEN",53,2024,7.49956209982683,1.39476646216284,113,8.89432856198967
2476099999,59.05,16.4,"FLODA, SWEDEN",33,2024,7.46879064494432,1.4280010265358,114,8.89679167148012
8000199999,32.697889,-16.774453,"MADEIRA, PORTUGAL",58.52,2024,7.97714349160762,0.924183753453988,354,8.90132724506161
68926099999,-34.0833333,21.25,"RIVERSDALE, SOUTH AFRICA",116,2024,8.09591100184521,0.811257866518748,352,8.90716886836395
2449099999,59.3833333,16.45,"ESKILSTUNA A, SWEDEN",15,2024,7.42386407267517,1.48729961391538,114,8.91116368659055
60156099999,33.367467,-7.589967,"MOHAMMED V, MOROCCO",199.94,2024,8.07088450473813,0.846740775530091,355,8.91762528026822
68592099999,-29.6166666,31.1333333,"KING SHAKA INTERNATIONAL AIRPORT, SOUTH AFRICA",127,2024,7.94637258451574,0.972683064998436,354,8.91905564951417
72394023273,34.89403,-120.45216,"SANTA MARIA PUBLIC AIRPORT, CA US",74.2,2024,8.04423132693299,0.875186835338315,366,8.9194181622713
94651099999,-31.45,130.9,"NULLARBOR, AUSTRALIA",65,2024,8.06169530791522,0.871630814922956,350,8.93332612283817
68453399999,-29.462256,27.552503,"MOSHOESHOE I INTERNATIONAL, LESOTHO",1630.07,2024,7.59613895534147,1.38258549665915,142,8.97872445200063
86825099999,-20.2666666,-42.1833333,"MANHUACU, BRAZIL",837.5,2024,8.20038500701131,0.781919528360887,354,8.9823045353722
82599199999,-26.879999,-48.65139,"MINISTRO VICTOR KONDER INTERNATIONAL, BRAZIL",5.48,2024,8.01331091545683,0.969250880089863,354,8.98256179554669
68485099999,-29.2166666,30,"MOOI RIVER, SOUTH AFRICA",1393,2024,8.15794656833057,0.830158200796723,341,8.9881047691273
76775599999,17,-96.7333333,"XOXOCOTLAN INTERNATIONAL, MEXICO",1520.64,2024,8.26601141375691,0.723747942309911,355,8.98975935606682
68289099999,-25.499504,30.9141,"NELSPRUIT, SOUTH AFRICA",883,2024,8.18264768423016,0.808487292371006,336,8.99113497660117
72392623136,34.21142,-119.08762,"CAMARILLO AIRPORT, CA US",21.6,2024,8.1262848133242,0.895640177007473,365,9.02192499033167
94549099999,-26.5666666,151.8333333,"KINGAROY AIRPORT, AUSTRALIA",434,2024,8.24343894715864,0.778846409559228,353,9.02228535671786
86944099999,-26.9333333,-50.15,"RIO DO CAMPO, BRAZIL",593.5,2024,8.06478918724868,0.993002883323481,268,9.05779207057216
94782099999,-33.4333333,151.3666666,"GOSFORD AWS, AUSTRALIA",7,2024,8.24029786304007,0.818401702868129,355,9.0586995659082
68549099999,-29.9,26.8666666,"WEPENER, SOUTH AFRICA",1420,2024,8.25515743350715,0.80546304451467,335,9.06062047802182
86757099999,-17.5666666,-47.2,"GUARDA MOR, BRAZIL",1001.5,2024,8.43212885707709,0.630807176730808,355,9.0629360338079
8554099999,37.014425,-7.965911,"FARO, PORTUGAL",7.31,2024,8.24885282889826,0.820493314368909,355,9.06934614326717
72593023233,36.66352,-121.60928,"SALINAS AIRPORT, CA US",22.3,2024,8.1688507037067,0.916221250166883,366,9.08507195387358
94929099999,-37,149.2333333,"BOMBALA AWS, AUSTRALIA",762,2024,6.92984558453258,2.15660237270747,56,9.08644795724004
68387099999,-27.7833333,30.8,"VRYHEID, SOUTH AFRICA",1163,2024,8.28284015660347,0.808082037712363,349,9.09092219431583
2625099999,55.4833333,14.3166666,"SKILLINGE, SWEDEN",5,2024,7.75526315789474,1.33599456942827,114,9.09125772732301
93186099999,-37.671944,176.19611,"TAURANGA, NEW ZEALAND",3.96,2024,8.38966938575953,0.704422351683288,355,9.09409173744282
95591099999,-27.2166666,153.1,"REDCLIFFE, AUSTRALIA",13,2024,8.21524269241543,0.9006204614727,352,9.11586315388813
94759099999,-33.6833333,151.2333333,"TERREY HILLS AWS, AUSTRALIA",199,2024,8.32536499743641,0.792551814898254,355,9.11791681233467
68300799999,-26.566372,27.960756,"VEREENIGING, SOUTH AFRICA",1477.06,2024,8.31596497963582,0.836462315308264,344,9.15242729494408
2557099999,57.8833333,15.8666666,"HORN, SWEDEN",91,2024,7.73621971197762,1.41809426181919,118,9.1543139737968
83779099999,-23.509119,-46.637753,"MARTE, BRAZIL",721.76,2024,8.40184737641889,0.764107882067987,355,9.16595525848688
68558099999,-30.9333333,27.6,"BARKLY EAST, SOUTH AFRICA",1819,2024,8.31337225409762,0.864587985402891,338,9.17796023950051
68443099999,-29.1166666,26.1833333,"BLOEMFONTEIN CITY, SOUTH AFRICA",1406,2024,8.24990358016883,0.928574570861729,240,9.17847815103056
68290499999,-25.383189,31.105603,"KRUGER MPUMALANGA INTERNATIONAL, SOUTH AFRICA",862.27,2024,8.26615471986204,0.913763522397545,355,9.17991824225959
2565099999,57.525833,15.823333,"HULTSFRED, SWEDEN",111.55,2024,7.70731684922192,1.47599852899885,120,9.18331537822077
91190522524,20.7895,-156.9485,"LANAI AIRPORT 656, HI US",396.2,2024,8.39783738529732,0.796419014387601,366,9.19425639968492
72392793110,34.20012,-119.20417,"OXNARD VENTURA CO AIRPORT, CA US",11.9,2024,8.34086733930206,0.868484626048016,365,9.20935196535008
95566099999,-26.95,152.9666666,"BEERBURRUM FOREST STATION, AUSTRALIA",36,2024,8.28632467416123,0.928734411746805,353,9.21505908590804
2574099999,58.5833333,16.15,"NORRKOPING, SWEDEN",41.6,2024,7.82253951578184,1.39692345969125,120,9.21946297547309
2469099999,59.1833333,17.9166667,"TULLINGE, SWEDEN",54,2024,7.74538124416414,1.48142040018867,114,9.22680164435281
83844099999,-25.5166666,-48.5166666,"PARANAGUA, BRAZIL",5,2024,8.39047277876628,0.850686333086248,287,9.24115911185253
68546099999,-30.7166667,26.7166667,"ALIWAL NORTH, SOUTH AFRICA",1351,2024,8.32829196455165,0.925495943434473,282,9.25378790798613
60025099999,28.044475,-16.572489,"TENERIFE SUR, SPAIN",63.7,2024,8.26045191579303,0.996240713890409,355,9.25669262968344
68752099999,-32.89715,27.279111,"BHISHO, SOUTH AFRICA",594.36,2024,8.42550240605659,0.856888876372766,293,9.28239128242936
94750099999,-34.948889,150.536944,"NOWRA, AUSTRALIA",121.92,2024,8.47071616154009,0.820594260176184,351,9.29131042171627
94578099999,-27.37939,153.12026,"BRISBANE AIRPORT, AUSTRIA",5,2024,8.37839315781922,0.913885926521306,355,9.29227908434053
68299099999,-25.9666666,31.25,"PIGGS PEAK, SWAZILAND",1099,2024,8.28095540868405,1.01331835916805,254,9.2942737678521
68185099999,-25.1,30.4666666,"LYDENBURG, SOUTH AFRICA",1434,2024,8.14211708725564,1.15698384628232,92,9.29910093353795
84123099999,-0.906833,-78.615756,"COTOPAXI INTERNATIONAL, ECUADOR",2805.68,2024,8.82724719101124,0.478536366625256,356,9.30578355763649
2667099999,56.15,15.5833333,"KARLSKRONA SODERSTJERNA, SWEDEN",8,2024,7.94188034188034,1.37319118075777,117,9.31507152263811
93191099999,-37.9166666,176.9166666,"WHAKATANE AWS, NEW ZEALAND",7,2024,8.5758469179446,0.747152748486835,355,9.32299966643143
95641099999,-34.0333333,115.1,"WITCHCLIFFE, AUSTRALIA",81,2024,8.5249187686036,0.807774007532094,348,9.3326927761357
86969099999,-28.2833333,-49.9333333,"SAO JOAQUIM, BRAZIL",1411.5,2024,8.3667341829002,0.968358483793789,355,9.33509266669399
56886099999,24.5333333,103.7666666,"LUXI, CHINA",1708,2024,8.47799557283418,0.859354793719248,344,9.33735036655343
68849099999,-33.2833333,26.5,"GRAHAMSTOWN, SOUTH AFRICA",642,2024,8.46044170148608,0.897642782401112,292,9.3580844838872
76539099999,22.254303,-100.930806,"PONCIANO ARRIAGA INTERNATIONAL, MEXICO",1839.46,2024,8.50297142423094,0.86291968272414,354,9.36589110695508
72292593117,33.02333,-118.58806,"SAN CLEMENTE ISLAND NAAS, CA US",55.5,2024,8.28186762983774,1.08517506287617,243,9.36704269271391
76625099999,20.617289,-100.185658,"QUERETARO INTERCONTINENTAL, MEXICO",1919.02,2024,8.5626250088926,0.805011214858425,355,9.36763622375103
2411099999,59.675856,12.639442,"ARVIKA, SWEDEN",72.23,2024,7.87473932609966,1.49349792669017,114,9.36823725278983
60015099999,28.482653,-16.341536,"TENERIFE NORTE, SPAIN",631.85,2024,8.52817337284108,0.841246718600154,356,9.36942009144124
94604099999,-33.35,115.65,"BUNBURY, AUSTRALIA",6,2024,8.6197631972989,0.762384075577096,350,9.382147272876
48802099999,22.35,103.8166667,"SA PA, VIETNAM",1581,2024,8.08226587791554,1.30312840446114,255,9.38539428237667
94599099999,-28.6333333,153.6333333,"CAPE BYRON AWS, AUSTRALIA",98,2024,8.57554597047441,0.810530568052955,339,9.38607653852737
76737099999,18.85,-97.1,"ORIZABA VER., MEXICO",1259,2024,8.5231632797466,0.866020220964566,355,9.38918350071117
68575099999,-30.15,30.0666666,"IXOPO, SOUTH AFRICA",937,2024,8.55552742690861,0.83368730033641,317,9.38921472724502
72289793206,35.23815,-120.64406,"SAN LUIS OBISPO MCCHESNEY FIELD, CA US",55.8,2024,8.56805419344183,0.823313326166265,365,9.3913675196081
95644099999,-33.55,120.7,"MUNGLINUP WEST, AUSTRALIA",220,2024,8.49513580442891,0.912724189830684,349,9.4078599942596
67299199999,-20.4666666,32.7666666,"ESPUNGABERA, MOZAMBIQUE",824,2024,8.00873348386456,1.40184624857213,105,9.41057973243669
68263599999,-25.938514,27.926133,"LANSERIA, SOUTH AFRICA",1376.78,2024,8.50386993874894,0.908434779500939,353,9.41230471824988
42147099999,29.4666666,79.65,"MUKTESHWAR KUMAON, INDIA",2311,2024,8.33348332619659,1.07883689043008,278,9.41232021662667
68342099999,-26.8166666,26.0166666,"OTTOSDAL, SOUTH AFRICA",1500,2024,8.6372420919489,0.789981108608818,351,9.42722320055772
8540099999,39.831244,-8.887261,"MONTE REAL, PORTUGAL",56.99,2024,8.5397260591627,0.889088506754944,355,9.42881456591764
95765099999,-33.8333333,151.0666666,"SYDNEY OLYMPIC PARK AWS ARCHERY CENTRE, AUSTRALIA",4,2024,8.59889634031291,0.834127636425305,355,9.43302397673821
95767099999,-33.0833333,151.4666666,"LAKE MACQUARIE AWS, AUSTRALIA",6,2024,8.55788232696422,0.886510430472091,354,9.44439275743632
86933099999,-25.4486111,-49.23,"CURITIBA, BRAZIL",925,2024,8.59147492178506,0.857127042784428,354,9.44860196456949
94614099999,-31.95,115.7666666,"SWANBOURNE, AUSTRALIA",41,2024,8.54280317885603,0.911803846597912,348,9.45460702545394
60177099999,32.95,-7.6166666,"SETTAT, MOROCCO",408,2024,8.49338788550726,0.963149299267455,270,9.45653718477471
86922099999,-24.9666666,-48.4166666,"BARRA DO TURVO, BRAZIL",668.5,2024,8.57858431305071,0.880157883884108,352,9.45874219693482
67965099999,-20.021263,28.626538,"J M NKOMO INTERNATIONAL BULAWAYO, ZIMBABWE",1330.76,2024,8.71371516742715,0.746815742269468,332,9.46053090969661
67571099999,-13.2333333,30.2166667,"SERENJE, ZAMBIA",1384,2024,6.13342765801408,3.3297184114825,8,9.46314606949658
43473099999,6.9666666,80.7666666,"NUWARA ELIYA, SRI LANKA",1880,2024,7.9978102189781,1.47105742359608,137,9.46886764257418
83942099999,-29.1666666,-51.2,"CAXIAS DO SUL, BRAZIL",759,2024,8.46773018165713,1.00833103670571,335,9.47606121836285
94939099999,-36.25,150.2166666,"MONTAGUE ISLAND LIGHHOUSE, AUSTRALIA",54,2024,8.21755060224868,1.25913551540862,161,9.4766861176573
95636099999,-33.8833333,119.1,"JACUP, AUSTRALIA",306,2024,8.58808966223204,0.903592857298402,350,9.49168251953044
2558099999,58.6833333,16.3166666,"KOLMARDEN STROMSFORS, SWEDEN",155,2024,8.02951468811839,1.46346607768163,120,9.49298076580002
86848099999,-21.5666666,-45.4,"VARGINHA, BRAZIL",926.5,2024,8.79406009736275,0.699448236759995,342,9.49350833412274
67861099999,-18.2166667,28.9333333,"GOKWE, ZIMBABWE",1282,2024,8.54845540682901,0.954270511329274,194,9.50272591815829
76665099999,19.7,-101.1833333,"MORELIA MICH., MEXICO",1913,2024,8.70990461576312,0.797374956264259,355,9.50727957202738
94553099999,-28.6166666,151.95,"APPLETHORPE, AUSTRALIA",873,2024,8.67213191067706,0.840548500739586,355,9.51268041141665
85293099999,-19.543069,-65.723706,"CAPITAN NICOLAS ROJAS, BOLIVIA",3935.88,2024,8.81699604743083,0.708031817415003,253,9.52502786484583
86691099999,-14.1333333,-47.5166666,"ALTO PARAISO DE GOIAS, BRAZIL",1261.5,2024,8.22112384933296,1.31665466098596,68,9.53777851031891
76687099999,19.55,-96.9166666,"JALAPA VER., MEXICO",1389,2024,8.57228879116568,0.97078430904321,355,9.54307310020889
72290753143,32.82611,-116.9725,"GILLESPIE FIELD AIRPORT, CA US",118,2024,8.72143514239876,0.83149678516628,366,9.55293192756504
48935099999,19.4666666,103.1333333,"PLAINE DES JARRES XIENGKHOUANG, LAOS",1050,2024,8.76690406664137,0.792291982323574,308,9.55919604896494
86565099999,-34.4833333,-54.3,"ROCHA, URUGUAY",18,2024,8.69475330569191,0.867017846151122,340,9.56177115184303
95761099999,-33.9833333,150.95,"HOLSWORTHY AERODROME AWS, AUSTRALIA",68.8,2024,8.72250146989698,0.848733843101645,355,9.57123531299862
93110099999,-37,174.8,"AUCKLAND AERO AWS, NEW ZEALAND",7,2024,8.83989158438372,0.747133663596057,355,9.58702524797977
76519099999,22.1,-103.2666666,"COLOTLAN JAL., MEXICO",1673,2024,8.09061970748836,1.4993510049071,65,9.58997071239547
83525099999,-18.8833333,-48.22,"UBERLANDIA AERO, BRAZIL",943,2024,8.91472371414815,0.67610730747039,355,9.59083102161855
83840099999,-25.528475,-49.175775,"AFONSO PENA, BRAZIL",910.74,2024,8.69518388404664,0.909806980239791,356,9.60499086428643
76613399999,20.5218,-103.311167,"DON MIGUEL HIDALGO Y COSTILLA INTERNATIONAL, MEXICO",1528.87,2024,8.8365524646213,0.772597736969256,355,9.60915020159055
94592099999,-28.164444,153.504722,"GOLD COAST, AUSTRALIA",6.4,2024,8.70936358684089,0.905991319631996,353,9.61535490647289
95565099999,-25.3166666,152.8833333,"HERVEY BAY AIRPORT, AUSTRALIA",15,2024,8.64992102088578,0.971666550930485,355,9.62158757181626
94765099999,-33.924444,150.988333,"SYDNEY BANKSTOWN, AUSTRALIA",8.83,2024,8.76655971959961,0.856925787195259,355,9.62348550679487
68588099999,-29.970089,30.950519,"DURBAN INTERNATIONAL, SOUTH AFRICA",10.05,2024,8.63175478632153,0.99971620345884,345,9.63147098978037
76571099999,21.705461,-102.317869,"JESUS TERAN INTERNATIONAL, MEXICO",1862.93,2024,8.90097974844198,0.731459565279179,354,9.63243931372115
74505823277,36.93936,-121.79001,"WATSONVILLE MUNICIPAL AIRPORT, CA US",49.5,2024,8.7330891653927,0.90617939023726,363,9.63926855562995
85442099999,-23.444478,-70.4451,"CERRO MORENO INTERNATIONAL, CHILE",138.68,2024,8.91574524540669,0.725643032970292,356,9.64138827837698
94576099999,-27.4833333,153.0333333,"BRISBANE, AUSTRALIA",8,2024,8.69172654168095,0.951806017900863,355,9.64353255958181
95638099999,-33.6833333,121.8333333,"ESPERANCE AERO, AUSTRALIA",144,2024,8.75989298468799,0.886112569971125,350,9.64600555465912
94605099999,-32.5166666,115.7166666,"MANDURAH, AUSTRALIA",4,2024,8.8084544499297,0.837825825572798,350,9.6462802755025
68264399999,-25.653858,28.224231,"WONDERBOOM, SOUTH AFRICA",1248.15,2024,8.68784089973932,0.962731389065723,311,9.65057228880504
94935099999,-37.6,149.7333333,"MALLACOOTA, AUSTRALIA",22,2024,8.83185742121637,0.819264039507698,308,9.65112146072406
86779099999,-18.2,-45.4666666,"TRES MARIAS, BRAZIL",922.5,2024,8.93766907548189,0.722437663725273,290,9.66010673920717
94555099999,-28.2,152.1,"WARWICK, AUSTRALIA",476,2024,8.864599243676,0.797329453164606,355,9.66192869684061
86943099999,-26.8166666,-50.8333333,"CACADOR, BRAZIL",953.5,2024,8.66486066865754,0.999880829138129,251,9.66474149779567
83925099999,-28.6,-48.8166666,"SANTA MARTA, BRAZIL",45,2024,8.36729088471724,1.29820538914447,166,9.66549627386172
94785099999,-31.0666666,152.7666666,"KEMPSEY AIRPORT AWS, AUSTRALIA",14,2024,8.7337786374493,0.934213194515123,355,9.66799183196442
68649099999,-31.1166666,26.8,"JAMESTOWN, SOUTH AFRICA",1603,2024,8.8328705616691,0.840107476041749,330,9.67297803771085
68478099999,-29,29.8833333,"ESTCOURT, SOUTH AFRICA",1144,2024,8.78263173143274,0.903076597425303,354,9.68570832885804
95611099999,-33.6833333,115.4,"BUSSELTON AERO, AUSTRALIA",17,2024,8.91199333381607,0.779245596631603,350,9.69123893044767
94594099999,-27.0333333,153.4666666,"CAPE MORETON LIGHTHOUSE AWS, AUSTRALIA",101,2024,8.82834880068582,0.863624449957934,355,9.69197325064376
86500099999,-33.2166667,-54.3833333,"TREINTA Y TRES, URUGUAY",46,2024,8.70927401576354,0.991796083189047,269,9.70107009895258
68833099999,-33.8333333,23.8666666,"JOUBERTINA, SOUTH AFRICA",546,2024,8.82897943439249,0.878013260346715,354,9.70699269473921
2482099999,60.2666666,16.9833333,"KERSTINBO, SWEDEN",57,2024,7.99226615244654,1.71804857961719,115,9.71031473206373
85921199999,-22.498175,-68.903575,"EL LOA, CHILE",2299.1,2024,8.86438546985632,0.852871436101322,355,9.71725690595765
85223099999,-17.421058,-66.177114,"JORGE WILSTERMAN, BOLIVIA",2548.12,2024,9.12237053089863,0.596817568344421,355,9.71918809924305
56964099999,22.7666666,100.9833333,"SIMAO, CHINA",1303,2024,8.90624070874189,0.818087092705012,354,9.7243278014469
67665099999,-15.3333333,28.45,"LUSAKA INTERNATIONAL, ZAMBIA",1151.83,2024,8.93572499382773,0.802763005605449,286,9.73848799943318
84720099999,-14.853953,-74.961542,"MARIA REICHE NEUMAN, PERU",566.92,2024,8.95186517583045,0.789248045954771,222,9.74111322178522
86948099999,-26.9508333,-48.7619444,"ITAJAI, BRAZIL",19.5,2024,8.50291842042497,1.24234898746595,247,9.74526740789092
8544099999,40.9166666,-8.6333333,"OVAR MACEDA, PORTUGAL",22,2024,8.93132129660384,0.815799117497273,348,9.74712041410112
68835099999,-33.7666666,24.8166666,"PATENSIE, SOUTH AFRICA",85,2024,8.74809916841891,1.00149903804934,324,9.74959820646825
67781099999,-17.431917,32.184502,"MUTOKO, ZIMBABWE",1203.96,2024,8.11857833932173,1.63291391893477,63,9.7514922582565
94674099999,-34.605278,135.880278,"PORT LINCOLN, AUSTRALIA",10.97,2024,8.94228799483101,0.824551119518259,354,9.76683911434927
86942099999,-26.4,-50.3666666,"MAJOR VIEIRA, BRAZIL",809.5,2024,8.7048833329478,1.06678728230136,245,9.77167061524915
56684099999,26.4,103.25,"HUIZE, CHINA",2189.3,2024,8.74736205493432,1.04116730863653,313,9.78852936357085
41254099999,23.0666667,57.6333333,"SAIQ, OMAN",1981,2024,8.81395227458925,0.984267079465953,266,9.7982193540552
94600099999,-33.5333333,115.0166666,"CAPE NATURALISTE, AUSTRALIA",110,2024,8.91675044216925,0.881833913737144,338,9.79858435590639
68461099999,-28.248392,28.336125,"BETHLEHEM, SOUTH AFRICA",1694.99,2024,8.86347304989366,0.940014617054992,355,9.80348766694865
94566099999,-26.1833333,152.6333333,"GYMPIE, AUSTRALIA",65,2024,8.82358572620846,0.991893099464419,344,9.81547882567288
2539099999,57.1166666,12.7833333,"ULLARED, SWEDEN",122,2024,8.5314136623565,1.29257953952532,120,9.82399320188182
95770099999,-33.2666666,151.5666666,"NORAH HEAD LIGHTHOUSE, AUSTRALIA",20,2024,8.96939077371795,0.857981896969091,354,9.82737267068705
68346399999,-26.242506,28.151169,"RAND, SOUTH AFRICA",1671.21,2024,6.80655513466346,3.02092004838799,10,9.82747518305145
2347099999,61.8333333,16.55,"DELSBO, SWEDEN",72,2024,8.19929678551813,1.63015157018311,115,9.82944835570124
67481099999,-10.1166667,32.6333333,"ISOKA, ZAMBIA",1360,2024,6.57210891767629,3.27419051235237,14,9.84629943002866
56462099999,29,101.5,"JIULONG, CHINA",2994,2024,8.88801415655732,0.969297949715236,344,9.85731210627256
72391093111,34.12407,-119.12281,"POINT MUGU NF, CA US",3.8,2024,8.89908041238812,0.965709649117663,366,9.86479006150578
8515099999,36.97139,-25.170639,"SANTA MARIA, PORTUGAL",93.87,2024,8.88985347817802,0.97495890187402,355,9.86481238005204
94760099999,-33.85,150.85,"HORSLEY EQUESTRIAN CENTRE, AUSTRALIA",100,2024,9.01059261529156,0.856952321438532,355,9.86754493673009
83587099999,-19.63375,-43.968856,"TANCREDO NEVES INTERNATIONAL, BRAZIL",827.53,2024,9.11926300052408,0.759548662671504,355,9.87881166319559
86947099999,-26.0833333,-48.65,"ITAPOA, BRAZIL",3.5,2024,8.80050401667151,1.0812007729372,346,9.8817047896087
74704303165,34.08333,-118.03333,"EL MONTE EMSU, CA US",90.2,2024,8.99024311436392,0.894140003372934,357,9.88438311773686
94757099999,-34.0666666,150.7666666,"CAMBELL TOWN MOUNT ANNAN, AUSTRALIA",112,2024,9.02745476170064,0.879712051671852,355,9.9071668133725
68839099999,-33.7,25.4333333,"UITENHAGE, SOUTH AFRICA",157,2024,8.82900057600346,1.09920509189896,247,9.92820566790242
86824099999,-20.7666666,-42.8666666,"VICOSA, BRAZIL",713.7,2024,9.09316608213232,0.85177439220049,353,9.94494047433281
93527099999,-40.55,173,"FAREWELL SPIT AWS, NEW ZEALAND",3,2024,9.20282803444537,0.743843854027017,355,9.94667188847239
94755099999,-34.040278,150.687222,"CAMDEN, AUSTRALIA",70.1,2024,9.08893339313893,0.873585140899979,355,9.9625185340389
94569099999,-26.6,153.1,"SUNSHINE COAST AIRPORT, AUSTRALIA",4,2024,9.03115396131523,0.947250367360643,355,9.97840432867588
86945099999,-26.25,-49.5833333,"RIO NEGRINHO, BRAZIL",870.5,2024,9.0060408600802,0.976389837238986,348,9.98243069731919
95807099999,-35.7166666,137.5166666,"KINGSTONE AERO, AUSTRALIA",6,2024,9.18851372104094,0.79395498462006,355,9.982468705661
2563099999,58.25,17.0166666,"HARSTENA, SWEDEN",18,2024,8.48166666666667,1.5080183401669,120,9.98968500683357
60369099999,36.7666666,3.1,"ALGER PORT, ALGERIA",12,2024,9.0129562035834,0.977165070013902,297,9.9901212735973
93292099999,-38.663333,177.978333,"GISBORNE, NEW ZEALAND",4.57,2024,9.17817732930067,0.817648988532161,355,9.99582631783284
95632099999,-33.95,116.1333333,"BRIDGETOWN, AUSTRALIA",179,2024,9.14670358918572,0.858174600689122,350,10.0048781898748
94608099999,-31.9166666,115.8666666,"PERTH METRO, AUSTRALIA",25,2024,9.0226780352312,0.982645349538165,350,10.0053233847694
48971099999,12.45,107.1833333,"MONDOL KIRI, CAMBODIA",690,2024,8.77423360627068,1.23520099947077,112,10.0094346057415
68487099999,-29.0833333,30.6,"GREYTOWN, SOUTH AFRICA",1029,2024,9.15996060966413,0.855568051680845,355,10.015528661345
8359099999,38.3666666,-0.5,"ALICANTE, SPAIN",82,2024,9.11806408238771,0.904352892734788,345,10.0224169751225
72393093214,34.71667,-120.56667,"VANDENBERG AFB, CA US",112.5,2024,9.2837747214256,0.739693906877214,366,10.0234686283028
16713199999,37.583,22.767,"NAFPLION, GREECE",2,2024,8.68182846913596,1.36786811431012,152,10.0496965834461
68719099999,-32.95,19.4333333,"EXCELSIOR, SOUTH AFRICA",945,2024,9.13091330511513,0.919504952673768,346,10.0504182577889
96505099999,3.7333333,115.6833333,"LONGBAWAN JUVAI, INDONESIA",550,2024,9.36414938297353,0.687374334739225,269,10.0515237177128
68647099999,-31.9166666,26.8833333,"QUEENSTOWN, SOUTH AFRICA",1104,2024,9.17878942433407,0.882745188135008,315,10.0615346124691
8521099999,32.6833333,-16.7666666,"FUNCHAL S.CATARINA, PORTUGAL",58,2024,9.02508388274563,1.04257409929791,353,10.0676579820435
56977099999,22.6166666,101.8166666,"JIANGCHENG, CHINA",1121,2024,9.23269102529466,0.84014840196166,350,10.0728394272563
94572099999,-28.8333333,153.26,"LISMORE AIRPORT AWS, AUSTRALIA",9.8,2024,9.13289920119338,0.954563739231337,355,10.0874629404247
94575099999,-27.570278,153.008056,"BRISBANE ARCHERFIELD, AUSTRALIA",19.2,2024,9.10372691631801,0.984506679188968,355,10.088233595507
68267799999,-23.8666667,29.4333333,"PIETERSBURG, SOUTH AFRICA",1222,2024,9.25662534489532,0.837736412069902,355,10.0943617569652
94598099999,-29.1833333,153.4,"EVANS HEAD RAAF BOMBING RANGE, AUSTRALIA",63,2024,9.17621624992493,0.924865709187465,355,10.1010819591124
74509023244,37.4058,-122.0481,"MOFFETT FEDERAL AIRFIELD, CA US",11.9,2024,9.26019970842807,0.851382295698066,365,10.1115820041261
68912099999,-34.15,18.3166666,"SLANGKOP, SOUTH AFRICA",8,2024,9.23072422252667,0.8841279361098,340,10.1148521586365
86938099999,-26.4,-52.85,"NOVO HORIZONTE, BRAZIL",961.5,2024,9.15254727861927,0.962675769861722,306,10.115223048481
80110099999,6.219958,-75.590519,"OLAYA HERRERA, COLOMBIA",1505.71,2024,9.60939691660482,0.507482255996431,353,10.1168791726013
93373099999,-39.4666666,176.8666666,"NAPIER AERODROME AWS, NEW ZEALAND",3.01,2024,9.28957534505251,0.836391105269745,355,10.1259664503223
60452099999,35.8166666,-0.2666666,"ARZEW, ALGERIA",4,2024,9.27581903414258,0.858177899658771,351,10.1339969338013
56985099999,23.45,103.3333333,"MENGZI, CHINA",1313.6,2024,9.34705793120681,0.793444807482189,345,10.140502738689
68714099999,-32.968889,18.160278,"LANGEBAANWEG AFB, SOUTH AFRICA",32.91,2024,9.24376328879355,0.898733378385997,355,10.1424966671795
67229099999,-14.704617,34.352369,"ULONGWE, MOZAMBIQUE",1299.97,2024,7.5944645916023,2.55074834896356,49,10.1452129405659
95784099999,-31.8833333,152.5166666,"TAREE AIRPORT AWS, AUSTRALIA",9,2024,9.18847407264929,0.96412613961382,355,10.1526002122631
95639099999,-32.9833333,121.6166666,"SALMON GUMS RES. STATION, AUSTRALIA",249,2024,9.20983748042546,0.953871613133547,348,10.163709093559
95637099999,-33.1,118.4666666,"LAKE GRACE, AUSTRALIA",286,2024,9.21091648201412,0.953665066172752,355,10.1645815481869
94791099999,-30.3205556,153.1163889,"COFFS HARBOUR, AUSTRALIA",5,2024,9.23460691149385,0.936460554409169,355,10.171067465903
2618099999,56.95,13.0666666,"TORUP, SWEDEN",130,2024,8.76885222671001,1.40364680542308,120,10.1724990321331
81877099999,-6.9666666,-35.6833333,"AREIA, BRAZIL",576.12,2024,9.36724897822307,0.805570385727508,236,10.1728193639506
8534099999,38.703861,-9.035916,"MONTIJO, PORTUGAL",14.02,2024,9.28077983088047,0.8982213503694,355,10.1790011812499
8286099999,39.95,-0.0666666,"CASTELLON ALMAZORA, SPAIN",43.5,2024,9.31021282779866,0.871465548123456,354,10.1816783759221
86818099999,-20.5833333,-47.3833333,"FRANCA, BRAZIL",1027.5,2024,9.3905116790567,0.793876687566108,179,10.1843883666228
60220099999,31.399181,-9.682992,"ESSAOUIRA, MOROCCO",128.02,2024,9.25462628237898,0.931084964559823,355,10.1857112469388
2587099999,57.9166666,18.95,"FAROSUND AR, SWEDEN",13,2024,8.71737034667893,1.46998437648297,116,10.1873547231619
72376293244,34.60694,-120.07556,"SANTA YNEZ AIRPORT, CA US",204.5,2024,9.28239833068884,0.914066427108081,363,10.1964647577969
94752099999,-33.9,150.7333333,"BADGERY S CREEK AIRPORT, AUSTRALIA",82,2024,9.29659362019397,0.909093115550107,351,10.2056867357441
68828099999,-34.005553,22.378889,"GEORGE, SOUTH AFRICA",197.51,2024,9.20381374726005,1.00217889946966,355,10.2059926467297
2453099999,60.7166666,17.1666666,"GAVLE SANDVIKEN AIR FORCE BASE, SWEDEN",16,2024,8.60752081624558,1.59880520841184,115,10.2063260246574
8383099999,37.2833333,-6.9166666,"HUELVA, SPAIN",20,2024,9.31922903993859,0.891354146667469,353,10.2105831866061
67975099999,-20.055333,30.859111,"MASVINGO INTERNATIONAL, ZIMBABWE",1095.75,2024,9.36819095844326,0.881105468826799,294,10.2492964272701
56571099999,27.9,102.2666667,"XICHANG, CHINA",1599,2024,9.45963853567289,0.792562384314018,344,10.2522009199869
95575099999,-27.9666666,152.9833333,"BEAUDESERT DRUMLEY ST, AUSTRALIA",48,2024,9.23436254231291,1.02939928416914,354,10.263761826482
98433099999,14.5833333,121.3666666,"TANAY, PHILIPPINES",651,2024,9.35463562275628,0.92507374787204,352,10.2797093706283
86350099999,-30.974569,-55.476189,"PRESIDENTE GENERAL DON OSCAR D GESTIDO, URUGUAY",223,2024,9.27610236415703,1.00372222928535,290,10.2798245934424
94602099999,-32.0166666,115.5,"ROTTNEST ISLAND, AUSTRALIA",43,2024,9.40227222548705,0.878308642320078,341,10.2805808678071
41315099999,17.25,54.0833333,"QAIROON HAIRITI, OMAN",881,2024,9.22832309991136,1.05256433686532,330,10.2808874367767
68263099999,-25.91098,28.21045,"PRETORIA IRENE, SOUTH AFRICA",1500,2024,9.30940667854794,0.972788105867007,355,10.2821947844149
83566099999,-19.6166667,-43.9666667,"CONFINS AERO, BRAZIL",827,2024,9.61318859327926,0.6693749194082,316,10.2825635126875
86796099999,-19.6,-46.9333333,"ARAXA, BRAZIL",1021.5,2024,9.59859619216435,0.69596447572599,355,10.2945606678903
68858099999,-33.035569,27.825939,"EAST LONDON, SOUTH AFRICA",132.58,2024,9.28261589994796,1.01331928788467,352,10.2959351878326
83378099999,-15.862583,-47.912666,"PRESIDENTE JUSCELINO KUBITSCHEK, BRAZIL",1060.39,2024,9.69834841482888,0.598958982889513,355,10.2973073977184
68754099999,-32.5166666,27.4666666,"DOHNE, SOUTH AFRICA",900,2024,9.35154570119122,0.960384049840485,342,10.3119297510317
86440099999,-32.337883,-54.216678,"CERRO LARGO, URUGUAY",114,2024,9.40310098959643,0.915998981856622,340,10.3190999714531
95617099999,-34.5833333,116.35,"SHANNON, AUSTRALIA",191,2024,9.47732157670146,0.863629120914012,350,10.3409506976155
60340099999,34.9833333,-3.0166666,"NADOR AROUI, MOROCCO",177,2024,9.37532807630037,0.972322522182168,355,10.3476505984825
68585099999,-30.4,30.6666666,"PENNINGTON SOUTH, SOUTH AFRICA",98,2024,9.33490565744197,1.01573591072591,332,10.3506415681679
48387099999,16.75,98.9333333,"DOI MU SOE AGROMET, THAILAND",368,2024,9.53474998863422,0.817187642248068,351,10.3519376308823
94373099999,-23.1333333,150.75,"YEPPOON THE ESPLANADE, AUSTRALIA",6,2024,9.29965049264351,1.05313363381027,343,10.3527841264538
86585099999,-34.85,-56.2,"PRADO, URUGUAY",16,2024,9.46587759337711,0.890257962474307,338,10.3561355558514
94552099999,-27.411389,151.735278,"OAKEY, AUSTRALIA",406.9,2024,9.47329049782756,0.890250432203864,355,10.3635409300314
60280099999,29.0166666,-10.0666666,"GUELMIN, MOROCCO",341,2024,9.33515993803486,1.03147853830836,355,10.3666384763432
56778099999,25.11096,102.93699,"WUJIABA, COMOROS",2103,2024,9.49917325219515,0.868285239211037,356,10.3674584914062
63702099999,-0.6166667,30.65,"MBARARA, UGANDA",1413,2024,9.45595367436849,0.916902604638559,71,10.372856279007
95806099999,-35.2833333,136.9333333,"STENHOUSE BAY, AUSTRALIA",44,2024,9.59662162317248,0.777507046589656,355,10.3741286697621
85545099999,-32.8,-70.083,"CARACOLES, CHILE",3851,2024,9.20398030661186,1.17228760626667,194,10.3762679128785
93173099999,-37.85,175.3333333,"HAMILTON AWS, NEW ZEALAND",53,2024,9.58905020355125,0.799364376764539,355,10.3884145803158
95621099999,-33.3666666,116.1666666,"COLLIE EAST, AUSTRALIA",200,2024,9.50361914513277,0.889187070119782,350,10.3928062152526
83583099999,-19.851181,-43.950628,"PAMPULHA CARLOS DRUMMOND DE ANDRADE, BRAZIL",789.12,2024,9.69085684890185,0.70359967255165,355,10.3944565214535
68840099999,-33.05,25.7166666,"SOMERSET, SOUTH AFRICA",506,2024,9.37004149086502,1.03565730486484,316,10.4056987957299
63862099999,-6.170436,35.752578,"DODOMA, TANZANIA",1119.53,2024,9.83999327520533,0.574962772365671,347,10.414956047571
83588099999,-19.65,-43.8833333,"LAGOA SANTA AIRPORT, BRAZIL",852,2024,9.69112065579347,0.726040456342811,355,10.4171611121363
8449013025,36.65,-6.35,"ROTA NAS, SPAIN",25.6,2024,9.45635021221491,0.968442076051439,355,10.4247922882664
86940099999,-26.9333333,-52.4,"XANXERE, BRAZIL",890.5,2024,9.49633744543141,0.933679664772832,337,10.4300171102042
42083099999,31.1,77.1666666,"SHIMLA, INDIA",2202,2024,8.41202243443654,2.02069128263192,60,10.4327137170685
72585093228,37.65886,-122.12116,"HAYWARD AIR TERMINAL, CA US",9.6,2024,9.52436676345686,0.922152153444202,364,10.4465189169011
95570099999,-29.75,153.0333333,"GRAFTON AIRPORT, AUSTRALIA",26,2024,9.45164045920137,0.997233777765433,355,10.4488742369668
82030599999,-22.196892,-49.9264,"MARILIA, BRAZIL",646.78,2024,9.37645472899882,1.07515861317166,162,10.4516133421705
95774099999,-33.2833333,151.2166666,"MANGROVE MOUNTAIN AWS, AUSTRALIA",305,2024,9.53532043522357,0.917291883365465,355,10.452612318589
94641099999,-33.6833333,117.6,"KATANNING, AUSTRALIA",321,2024,9.5284988154057,0.926370489033284,350,10.454869304439
8537099999,38.883278,-9.030097,"ALVERCA, PORTUGAL",3.35,2024,9.3673858621715,1.09045105474872,234,10.4578369169202
83914099999,-28.243989,-52.326558,"LAURO KURTZ, BRAZIL",724.2,2024,9.55256956571473,0.905417403624595,355,10.4579869693393
68341099999,-26.175672,26.184575,"LICHTENBURG, SOUTH AFRICA",1485.9,2024,9.45992860561333,0.998853230010783,306,10.4587818356241
68380099999,-26.0666667,30.1166667,"CAROLINA, SOUTH AFRICA",1700,2024,8.75986761874029,1.71152518776654,46,10.4713928065068
61415099999,20.933067,-17.029956,"NOUADHIBOU, MAURITANIA",4.87,2024,9.65078729051696,0.821129282865749,355,10.4719165733827
60040099999,28.945464,-13.605225,"LANZAROTE, SPAIN",14.32,2024,9.46268088828734,1.01043996649846,355,10.4731208547858
78268099999,20.365317,-74.506206,"GUSTAVO RIZO, CUBA",7.92,2024,8.42871260958536,2.04553782890563,73,10.474250438491
95293099999,-19.4166666,146.5333333,"WOOLSHED, AUSTRALIA",559,2024,9.37420450661659,1.10116932144412,187,10.4753738280607
94617099999,-34.25,116.15,"MANJIMUP, AUSTRALIA",287,2024,9.6052284606479,0.875943061556392,349,10.4811715222043
2429099999,59.6666666,14.1833333,"DAGLOSEN, SWEDEN",133,2024,8.85318008511433,1.63431805762489,114,10.4874981427392
95663099999,-34.25,135.7166666,"CUMMINS AERO, AUSTRALIA",58,2024,9.57018617527863,0.919110129469766,348,10.4892963047484
76525099999,22.7833333,-102.5666666,"ZACATECAS ZAC. LA BUFA ZAC., MEXICO",2612,2024,9.50605416131316,0.988856872941637,354,10.4949110342548
8001099999,43.3666666,-8.4166666,"LA CORUNA, SPAIN",67,2024,9.64978349806816,0.849955037187655,355,10.4997385352558
86966099999,-28.5136111,-50.882778,"VACARIA, BRAZIL",987.5,2024,9.52501727578667,0.977295969187226,352,10.5023132449739
67461099999,-11.1,28.85,"MANSA, ZAMBIA",1384,2024,7.51502237173872,2.99072293981533,16,10.5057453115541
80210099999,4.812675,-75.739519,"MATECANA, COLOMBIA",1345.99,2024,9.91206121160165,0.599442386870866,356,10.5115035984725
2513099999,57.7166666,12,"GOTEBORG, SWEDEN",2,2024,9.08112081867768,1.43371589288662,120,10.5148367115643
41519599999,25.983,63.033,"TURBAT INTERNATIONAL, PAKISTAN",152,2024,8.41251362242969,2.10363847859977,44,10.5161521010295
94809099999,-35.1166666,137.7333333,"EDITHBURGH AWS, AUSTRALIA",7,2024,9.63136131076264,0.887443446279289,341,10.5188047570419
95677099999,-34.793333,138.633056,"ADELAIDE PARAFIELD, AUSTRALIA",17.37,2024,9.63808908966167,0.887551982805138,355,10.5256410724668
8594099999,16.741389,-22.949444,"AMILCAR CABRAL INTERNATIONAL, CAPE VERDE",53.94,2024,9.73033584666189,0.833255732928986,355,10.5635915795909
82798199999,-26.224453,-48.797364,"LAURO CARNEIRO DE LOYOLA, BRAZIL",4.57,2024,9.32986160661879,1.24812696918167,353,10.5779885758005
94987099999,-42,148.2833333,"FRIENDLY BEACHES, AUSTRALIA",56,2024,9.65528186296697,0.922806347657098,343,10.5780882106241
95571099999,-29.6166666,152.9666666,"GRAFTON RESEARCH STATION, AUSTRALIA",26,2024,9.59325834545496,1.00154386361675,355,10.5948022090717
94541099999,-29.7833333,151.0833333,"INVERELL RESEARCH CENTRE, AUSTRALIA",664,2024,9.75300050187413,0.842313334764938,355,10.5953138366391
94370099999,-22.7333333,150.65,"SAMUEL HILL AERO, AUSTRALIA",32,2024,9.54477083439847,1.0596472208719,355,10.6044180552704
68002699999,-28.584722,16.446667,"ORANJEMUND, NAMIBIA",4.26,2024,9.75961286308191,0.844957658212694,256,10.6045705212946
94628099999,-33.1166666,118.8333333,"NEWDEGATE RES. STATION, AUSTRALIA",321,2024,9.62567963477522,0.983323719538394,347,10.6090033543136
72494523293,37.35938,-121.92444,"SAN JOSE, CA US",15,2024,9.77918826666958,0.833221957112709,366,10.6124102237823
94567099999,-25.5166666,152.7166666,"MARYBOROUGH, AUSTRALIA",11,2024,9.60673504005341,1.01455667945996,355,10.6212917195134
87163099999,-26.25,-53.8166667,"BERNARDO DE IRIGOYE, ARGENTINA",815,2024,9.76397350223056,0.86863511015661,354,10.6326086123872
86820099999,-20.45,-45.45,"FORMIGA, BRAZIL",879.5,2024,9.95770362739251,0.68233156078168,355,10.6400351881742
94808099999,-35.1666666,138.5,"NOARLUNGA, AUSTRALIA",55,2024,9.84353258026361,0.803276866381829,355,10.6468094466454
63680099999,0.3166666,32.6166666,"KAMPALA, UGANDA",1140,2024,9.36078330084048,1.30531668099501,38,10.6660999818355
86697099999,-14.8833333,-40.8,"VITORIA DA CONQUISTA, BRAZIL",874,2024,9.78950284049286,0.88881512574751,298,10.6783179662404
85577099999,-33.4333333,-70.6833333,"QUINTA NORMAL, CHILE",520,2024,9.91257862175483,0.766348704014931,356,10.6789273257698
8532099999,38.831053,-9.339553,"SINTRA, PORTUGAL",134.11,2024,9.45215385646183,1.22693749831477,244,10.6790913547766
2544099999,58.5166666,14.5166666,"KARLSBORG, SWEDEN",94,2024,9.17629641278599,1.51151132998074,119,10.6878077427667
95664099999,-33.058889,137.514444,"WHYALLA, AUSTRALIA",12.49,2024,9.74504637238654,0.946491705632097,345,10.6915380780186
94588099999,-29.6833333,151.7,"GLEN INNES AIRPORT, AUSTRALIA",1045,2024,9.74432975661103,0.949867003831222,353,10.6941967604422
68257099999,-25.25,27.2166666,"PILANESBERG, SOUTH AFRICA",1086,2024,9.58563990341633,1.11295261441255,238,10.6985925178289
94631099999,-34.5666666,117.0166666,"ROCKY GULLY, AUSTRALIA",251,2024,9.78618090388793,0.929247189915918,338,10.7154280938038
2423099999,59.8666666,13.1166666,"SUNNE, SWEDEN",109,2024,9.07180983305007,1.65864579493818,114,10.7304556279882
95818099999,-35.0666666,139.2333333,"PALLAMANA AERODROME, AUSTRALIA",46,2024,9.80202024351307,0.933229002182616,354,10.7352492456957
60101099999,35.726917,-5.916889,"IBN BATOUTA, MOROCCO",18.89,2024,9.6485113369054,1.092965989492,355,10.7414773263974
68633099999,-31.1833333,24.95,"NOUPOORT, SOUTH AFRICA",1496,2024,9.83137061873394,0.911426904171597,314,10.7427975229055
86545099999,-34.0833333,-56.2333333,"FLORIDA, URUGUAY",68,2024,9.86963203739656,0.883913940984286,339,10.7535459783808
86980099999,-29.3688889,-50.8275,"CANELA, BRAZIL",831.5,2024,9.67985064731142,1.07844821236909,350,10.7582988596805
72288023152,34.19966,-118.36543,"BURBANK GLENDALE PASADENA AIRPORT, CA US",222.7,2024,9.74645087539821,1.01457799387304,366,10.7610288692712
86716099999,-15.6,-47.6333333,"AGUAS EMENDADAS, BRAZIL",1201.5,2024,10.1849937149634,0.576909818612862,355,10.7619035335762
72033353175,33.89765,-117.60243,"CORONA MUNICIPAL AIRPORT, CA US",162.5,2024,9.76823157917443,1.00154192112187,350,10.7697735002963
87405099999,-32.6,-69.3333333,"USPALLATA, ARGENTINA",1844,2024,9.32117036924515,1.4494291280282,161,10.7705994972733
86954099999,-27.6666666,-52.3,"ERECHIM, BRAZIL",766.5,2024,9.80281449580866,0.970375378385944,355,10.7731898741946
68110099999,-22.5666667,17.1,"WINDHOEK EROS SAAF, NAMIBIA",1725,2024,9.97898085396768,0.809462897395184,336,10.7884437513629
63756099999,-2.444486,32.932667,"MWANZA, TANZANIA",1146.96,2024,10.1976105539768,0.59878696766106,350,10.7963975216379
8558199999,40.915867,-8.645919,"OVAR, PORTUGAL",17.06,2024,9.89333310774225,0.904944422291186,353,10.7982775300334
86956099999,-27.2833333,-50.6,"CURITIBANOS, BRAZIL",983.5,2024,9.82274444005162,0.984868224079409,355,10.807612664131
87596099999,-35.3666666,-57.2833333,"PUNTA INDIO B.A., ARGENTINA",16,2024,9.81963907821102,0.988101250964951,346,10.807740329176
94620099999,-32.7166666,116.05,"DWELLINGUP, AUSTRALIA",268,2024,9.91352096648514,0.896428713218109,350,10.8099496797033
60205199999,32.1249,-7.878,"BEN GUERIR AIR BASE, MOROCCO",436,2024,9.7591292961272,1.05920824204175,294,10.818337538169
86873099999,-22.4,-44.9666666,"PASSA QUATRO, BRAZIL",1041.5,2024,9.99129060379526,0.837497573275425,318,10.8287881770707
2542099999,58.3166666,13.0333333,"HALLUM, SWEDEN",71,2024,9.23564818742529,1.61009155086741,120,10.8457397382927
63733099999,-1.5,33.8,"MUSOMA, TANZANIA",1147,2024,10.3252572672029,0.520759057130385,342,10.8460163243333
86782099999,-18.7833333,-42.95,"GUANHAES, BRAZIL",861.5,2024,9.97713777797277,0.870730512751356,354,10.8478682907241
94682099999,-34.4333333,140.6,"LOXTON RESEARCH CENTRE, AUSTRALIA",30,2024,9.88491821131292,0.964697909691042,354,10.849616121004
41055099999,20.296139,41.634277,"AL BAHA, SAUDI ARABIA",1672.13,2024,9.958543183882,0.891876815885795,356,10.8504199997678
86675099999,-13.0166666,-39.6166666,"AMARGOSA, BRAZIL",408.5,2024,9.92157411691373,0.929808919134875,355,10.8513830360486
63602099999,3.05,30.9166667,"ARUA, UGANDA",1211,2024,9.6594909831954,1.19299824861422,82,10.8524892318096
86735099999,-16.6833333,-48.6166666,"SILVANIA, BRAZIL",950.5,2024,10.1258876814714,0.739402733822714,276,10.8652904152941
95607099999,-32.2333333,115.6833333,"GARDEN ISLAND HSF, AUSTRALIA",6,2024,9.95438390883706,0.912252087611278,350,10.8666359964483
95753099999,-33.6,150.7833333,"RICHMOND RAAF, AUSTRALIA",20,2024,9.84841751501653,1.01953144293166,355,10.8679489579482
94814099999,-35.2833333,138.9,"STRATHALBYN RACECOURSE, AUSTRALIA",58,2024,9.99179149607268,0.899228073515851,355,10.8910195695885
83780099999,-23.626692,-46.655375,"CONGONHAS, BRAZIL",801.92,2024,9.98708736809014,0.906943149108461,356,10.8940305171986
68817099999,-33.9,18.4333333,"CAPE TOWN PORTNET, SOUTH AFRICA",2,2024,9.93986264372216,0.957512797513563,350,10.8973754412357
95676099999,-34.7025,138.620833,"EDINBURGH, AUSTRALIA",20.42,2024,10.0238532373266,0.878117050508735,355,10.9019702878353
2343099999,62.5,16.2833333,"TORPSHAMMAR, SWEDEN",100,2024,9.13020286163222,1.78315689867629,111,10.9133597603085
87593099999,-34.972222,-57.894694,"LA PLATA, ARGENTINA",21.94,2024,10.0415974410669,0.882045555548075,357,10.923642996615
94573099999,-28.8833333,153.05,"CASINO AIRPORT AWS, AUSTRALIA",22,2024,9.87206538067537,1.05892087725258,355,10.9309862579279
68668099999,-31.547903,28.674289,"MTHATHA, SOUTH AFRICA",731.52,2024,9.89112668875461,1.05521844657703,350,10.9463451353316
86721099999,-15.7166666,-42.4333333,"RIO PARDO DE MINAS, BRAZIL",854.5,2024,10.2123183780033,0.737062997701023,355,10.9493813757043
2552099999,58.0666666,15.2333333,"MALEXANDER, SWEDEN",197,2024,9.3496626249619,1.60251564148897,120,10.9521782664509
86460099999,-32.8,-56.5166666,"PASO DE LOS TOROS, URUGUAY",75,2024,10.025593947015,0.92710954525103,340,10.952703492266
86965099999,-28.2219444,-51.5122222,"LAGOA VERMELHA, BRAZIL",843.5,2024,9.94973280371702,1.00595451143929,355,10.9556873151563
86758099999,-17.7833333,-46.1166666,"JOAO PINHEIRO, BRAZIL",871.5,2024,10.2785928760212,0.677992910783175,338,10.9565857868043
84036099999,0.6,-77.8166666,"SAN GABRIEL, ECUADOR",2860,2024,10.1675438596491,0.795454349457385,114,10.9629982091065
60402099999,36.711997,5.069922,"SOUMMAM, ALGERIA",6.09,2024,9.96826120468705,0.995626604413623,356,10.9638878091007
95642099999,-32.2166666,121.75,"NORSEMAN AERO, AUSTRALIA",263,2024,9.91744152515332,1.04701824204253,350,10.9644597671959
86970099999,-28.5333333,-49.3166666,"URUSSANGA, BRAZIL",49.5,2024,9.90146425754501,1.06422653443988,330,10.9656907919849
86930099999,-25.0166666,-50.85,"IVAI, BRAZIL",809.5,2024,9.7561630808888,1.21498954990267,132,10.9711526307915
95918099999,-37.6833333,148.4666666,"ORBOST, AUSTRALIA",63,2024,10.1246970267115,0.850715621649045,352,10.9754126483605
68002099999,-22.612239,17.080442,"EROS, NAMIBIA",1699.26,2024,10.1208208219794,0.870834664121287,349,10.9916554861007
68112099999,-22.479894,17.47095,"HOSEA KUTAKO INTERNATIONAL, NAMIBIA",1719.07,2024,10.1881917276996,0.811861477035108,348,11.0000532047347
68333099999,-27.4333333,23.45,"KURUMAN, SOUTH AFRICA",1315,2024,10.0496991433917,0.954387312354167,343,11.0040864557458
8495099999,36.151219,-5.349664,"GIBRALTAR, GIBRALTAR",4.57,2024,10.0857478921586,0.921975886610251,355,11.0077237787688
85364099999,-21.555736,-64.701325,"CAPITAN ORIEL LEA PLAZA, BOLIVIA",1854.4,2024,10.21726224498,0.792752645723558,355,11.0100148907036
68488099999,-28.3666666,31.2166666,"BABANANGO, SOUTH AFRICA",768,2024,9.9643843595564,1.04710771650153,337,11.0114920760579
95640099999,-32.6666666,116.6666666,"WANDERING, AUSTRALIA",275,2024,10.0162818664209,0.99555630966506,346,11.011838176086
60338099999,35.279817,-2.956256,"MELILLA, SPAIN",47.54,2024,10.1095845247578,0.910258567324288,355,11.0198430920821
78764099999,9.957053,-84.139797,"TOBIAS BOLANOS INTERNATIONAL, COSTA RICA",993.95,2024,10.4480833377412,0.572645302784933,354,11.0207286405262
2589099999,58.4,19.2,"GOTSKA SANDON, SWEDEN",17,2024,9.35167576946605,1.67013162248683,116,11.0218073919529
68350099999,-26.7333333,27.0666666,"POTCHEFSTROOM, SOUTH AFRICA",1351,2024,10.0898225585739,0.935123936870754,343,11.0249464954447
94685099999,-33.97,137.67,"KADINA, AUSTRALIA",42,2024,10.1134159366204,0.912332922989329,355,11.0257488596097
72493723289,37.46667,-122.11667,"PALO ALTO, CA US",2.1,2024,10.0905711718126,0.939951638357523,350,11.0305228101702
94662099999,-33.7166666,136.5,"CLEVE AERODROME, AUSTRALIA",176,2024,10.1309418755806,0.907403113219257,355,11.0383449887998
95659099999,-34.75,137.5166666,"MINLATON AERO, AUSTRALIA",32,2024,10.1651146306376,0.882448959663885,355,11.0475635903015
95662099999,-32.85,135.15,"MINNIPA DPI, AUSTRALIA",166,2024,10.1010517602749,0.951460880165648,355,11.0525126404405
84735099999,-15.467103,-70.158169,"JULIACA, PERU",3825.84,2024,10.5700564971752,0.482722165460361,354,11.0527786626355
68811099999,-33.2,18.1166666,"GEELBEK, SOUTH AFRICA",7,2024,10.140800045685,0.912825091064907,355,11.0536251367499
83075099999,-23.432075,-46.469511,"GUARULHOS, BRAZIL",749.5,2024,10.1285638907357,0.926524720556935,355,11.0550886112926
8482099999,36.6749,-4.499106,"MALAGA, SPAIN",15.84,2024,10.0891724134578,0.977084024018536,355,11.0662564374764
68624099999,-31.9166666,21.5166666,"FRASERBURG, SOUTH AFRICA",1268,2024,10.1963032083887,0.870290064871938,342,11.0665932732606
94562099999,-27.55,152.3333333,"UNIVERSITY OF QUEENSLAND GATTON, AUSTRALIA",94,2024,10.0130650741192,1.05988076254528,355,11.0729458366645
67869099999,-18.3166666,29.8833333,"KADOMA, ZIMBABWE",1157,2024,9.85342398471949,1.22116122324612,110,11.0745852079656
72288703180,34.1,-117.78333,"LA VERNE BRACKETT FIELD, CA US",308.2,2024,10.1269641313873,0.948250095065985,346,11.0752142264533
94912099999,-37.8833333,147.5666666,"BAIRNSDALE AIRPORT, AUSTRALIA",50,2024,10.169331983154,0.907028738705706,355,11.0763607218597
68722099999,-32.3833333,20.6666666,"SUTHERLAND, SOUTH AFRICA",1459,2024,10.0442348591323,1.03593233519753,329,11.0801671943298
56247099999,30,99.1,"BATANG, CHINA",2589,2024,10.0885284521989,0.994415400051749,327,11.0829438522507
2546099999,58.8833333,14.3833333,"GARDSJO, SWEDEN",212,2024,9.55854312787653,1.54374433451658,120,11.1022874623931
8433099999,37.774972,-0.812389,"MURCIA SAN JAVIER, SPAIN",3.35,2024,10.1069708685506,0.996486409873481,355,11.1034572784241
86490099999,-33.25,-58.0666667,"MERCEDES RICARDO DE, URUGUAY",22,2024,10.1882207359283,0.917976540599006,329,11.1061972765273
80094099999,7.1265,-73.184778,"PALONEGRO, COLOMBIA",1187.8,2024,10.5688735244582,0.538236064406787,357,11.107109588865
86550199999,-34.3519,-56.7497,"AEROCLUB MARAGATO, URUGUAY",72,2024,10.1851534657814,0.92346686742231,353,11.1086203332037
72032999999,34.111542,-117.687589,"CABLE, CA US",438.6,2024,10.1729046971915,0.941666795783555,342,11.114571492975
87047099999,-24.855978,-65.486169,"SALTA, ARGENTINA",1246.02,2024,10.1795404500741,0.94405733015435,357,11.1235977802284
8044099999,42.4333333,-8.6166666,"PONTEVEDRA, SPAIN",108,2024,10.1728495354288,0.954756307579756,349,11.1276058430086
68582099999,-29.65,30.4,"ORIBI AIRPORT, SOUTH AFRICA",739,2024,10.1167247043785,1.01175110119046,352,11.1284758055689
8545099999,41.248055,-8.681389,"PORTO, PORTUGAL",69.49,2024,10.1155496700081,1.01533139895385,355,11.130881068962
67475099999,-10.2166667,31.1333333,"KASAMA, ZAMBIA",1384,2024,7.56728713022631,3.56835730473815,13,11.1356444349645
62059099999,32.7833333,22.5833333,"DERNA, LIBYA",26,2024,8.06666666666667,3.07024154301326,15,11.1369082096799
67693099999,-15.679053,34.974014,"CHILEKA INTERNATIONAL, MALAWI",778.76,2024,10.3121261299024,0.825583885643647,322,11.137710015546
94775099999,-32.6333333,151.5833333,"TOCAL AWS, AUSTRALIA",30,2024,10.0999436180877,1.03994518804695,355,11.1398888061346
94387099999,-24.9,152.3166666,"BUNDABERG AERO, AUSTRALIA",28,2024,10.0748963665066,1.06885076016958,355,11.1437471266762
7317099999,44.4333333,-1.25,"BISCAROSSE PARENTIS, FRANCE",39,2024,9.39870280327176,1.74810077182804,176,11.1468035750998
83985099999,-31.718353,-52.327689,"PELOTAS, BRAZIL",17.98,2024,10.185740584972,0.963872049582174,341,11.1496126345542
83011099999,-25.4,-49.2333333,"BACACHERI AERO, BRAZIL",927,2024,7.15,4.00879377369303,8,11.158793773693
86902099999,-23.7666666,-50.1833333,"IBAITI, BRAZIL",931.5,2024,10.2370594254861,0.945375282856597,343,11.1824347083427
93119099999,-37.008056,174.791667,"AUCKLAND INTERNATIONAL, NEW ZEALAND",7.01,2024,10.2185553068387,0.970541342682851,355,11.1890966495216
67779099999,-16.7833333,31.5833333,"MOUNT DARWIN, ZIMBABWE",966,2024,9.59106252538427,1.60428693965553,92,11.1953494650398
94763099999,-33.7166666,150.6833333,"PENRITH, AUSTRALIA",25,2024,10.098577783937,1.10824865334251,335,11.2068264372795
68572099999,-29.8,29.35,"SHALEBURN, SOUTH AFRICA",1614,2024,10.1412988308031,1.06584186493664,327,11.2071406957397
8360099999,38.282169,-0.558156,"ALICANTE, SPAIN",43.28,2024,10.2400837575678,0.967231943919348,355,11.2073157014872
68583099999,-29.7,31.05,"MOUNT EDGECOMBE, SOUTH AFRICA",94,2024,10.2135433234696,0.996500942342347,349,11.2100442658119
86939099999,-26.4166666,-52.35,"CLEVELANDIA, BRAZIL",981.5,2024,10.253167276839,0.960869003875006,349,11.214036280714
86595099999,-34.9666666,-54.95,"PUNTA DEL ESTE, URUGUAY",24.08,2024,10.1559505835899,1.06234491361701,306,11.2182954972069
68581099999,-29.6333333,30.4,"PIETERMARITZBURG, SOUTH AFRICA",673,2024,10.227394500041,0.996277240428191,353,11.2236717404692
86370099999,-31.749031,-55.925758,"TACUAREMBO, URUGUAY",138,2024,10.2256871265877,1.00004103176525,340,11.2257281583529
68541099999,-29.7536111,25.3230556,"FAURESMITH, SOUTH AFRICA",1387,2024,10.278272146983,0.953196168189863,333,11.2314683151728
87645099999,-37.237392,-59.227922,"TANDIL, ARGENTINA",174.95,2024,10.3072070687693,0.9292187919073,357,11.2364258606766
95687099999,-34.2,140.6833333,"RENMARK AERO, AUSTRALIA",32,2024,10.2294355016737,1.0113657822021,352,11.2408012838758
42299099999,27.3333333,88.6166666,"GANGTOK, INDIA",1756,2024,10.0587306343967,1.18261369552519,264,11.2413443299218
68377099999,-27.7666666,29.9833333,"NEWCASTLE, SOUTH AFRICA",1238,2024,10.2407575947503,1.0116603238593,339,11.2524179186096
8589099999,14.9333333,-23.4833333,"PRAIA, CAPE VERDE",95,2024,10.352862653853,0.899979075050888,163,11.2528417289039
60030099999,27.931886,-15.386586,"GRAN CANARIA, SPAIN",23.77,2024,10.1460617051866,1.10745746252504,355,11.2535191677116
68362099999,-27.2666666,28.5,"FRANKFORT, SOUTH AFRICA",1503,2024,10.0330923076656,1.22334461883328,324,11.2564369264989
91587099999,-21.481678,168.037508,"MARE, NEW CALEDONIA",42.97,2024,10.2924217931265,0.968805382976759,346,11.2612271761033
95815099999,-36.1,140.3166666,"MUNKORA, AUSTRALIA",28,2024,10.3589041029475,0.912291335745687,354,11.2711954386932
95771099999,-32.7833333,151.3333333,"CESSNOCK AIRPORT, AUSTRALIA",62,2024,10.2143881362415,1.05727173585451,355,11.271659872096
68479099999,-28.5666666,29.7666666,"LADYSMITH, SOUTH AFRICA",1069,2024,10.2102561460701,1.06740721810593,346,11.2776633641761
94388099999,-24.1166666,152.7166666,"LADY ELLIOT ISLAND, AUSTRALIA",4,2024,10.0780715470857,1.19995271576188,342,11.2780242628476
95671099999,-34.5166666,138.6833333,"ROSEWORTHY AG COLLEGE, AUSTRALIA",65,2024,10.3044612631434,0.974146672595339,355,11.2786079357387
87585099999,-34.5833333,-58.4833333,"BUENOS AIRES OBS, ARGENTINA",25,2024,10.4005420886495,0.87835299348716,356,11.2788950821366
72494693232,37.33333,-121.81667,"SAN JOSE REID HILLVIEW AIRPORT, CA US",40.5,2024,10.4225021107512,0.857626862809515,356,11.2801289735607
95670099999,-33.7833333,138.2166666,"RAYVILLE PARK, AUSTRALIA",109,2024,10.3430623065693,0.950247679067939,355,11.2933099856372
68347099999,-26.871064,26.718003,"P C PELSER, SOUTH AFRICA",1354.53,2024,10.3430427222922,0.953106751739606,326,11.2961494740319
86979099999,-29.1672222,-51.5347222,"BENTO GONCALVES, BRAZIL",641.5,2024,10.2346223769122,1.06744826355135,355,11.3020706404635
87582099999,-34.559175,-58.415606,"AEROPARQUE JORGE NEWBERY, ARGENTINA",5.48,2024,10.3739147499483,0.933753919782832,357,11.3076686697311
94542099999,-27.15,151.2666666,"DALBY AIRPORT, AUSTRALIA",348,2024,10.2955456114655,1.01665578244892,355,11.3122013939144
99773499999,37.92,-122.45,"TIBURON PIER, CA US",3,2024,10.2428397406805,1.07388234435321,240,11.3167220850337
68923099999,-34.15,19.9,"TIGERHOEK, SOUTH AFRICA",151,2024,10.3514004015801,0.967559376779532,341,11.3189597783596
94690099999,-35.3777778,140.5377778,"AUSTIN PLAINS, AUSTRALIA",110.8,2024,10.37737698804,0.950551337375735,354,11.3279283254157
94381099999,-23.8666666,151.2166666,"GLADSTONE AIRPORT, AUSTRALIA",17,2024,10.2261086686082,1.10345141077051,355,11.3295600793787
94969099999,-41.4166666,147.1166666,"LAUNCESTON TI TREE BEND, AUSTRALIA",5,2024,10.3691451125625,0.964007095188268,348,11.3331522077508
76612099999,20.6666666,-103.3833333,"GUADALAJARA JAL., MEXICO",1551,2024,10.5204184172425,0.814232293661445,350,11.334650710904
72057800176,32.717,-98.892,"STEPHENS CO AIRPORT, TX US",391.1,2024,9.5167664208495,1.82515889165732,89,11.3419253125068
68429099999,-28.3333333,23.0666666,"POSTMASBURG, SOUTH AFRICA",1321,2024,10.4464966321831,0.897242277542692,355,11.3437389097258
83818099999,-23.925206,-46.2875,"BASE AEREA DE SANTOS, BRAZIL",3.04,2024,10.1936554475653,1.1555151559064,351,11.3491706034717
95831099999,-35.1166666,142,"WALPEUP RESEARCH, AUSTRALIA",105,2024,10.377011508908,0.97299262830996,355,11.3500041372179
95610099999,-32.0166666,116.1333333,"KALAMUNDA BICKLEY, AUSTRALIA",385,2024,10.4089986657631,0.942047745611576,347,11.3510464113746
8512099999,37.741184,-25.69787,"PONTA DELGADA, PORTUGAL",78.94,2024,10.2771965544878,1.07835494034282,354,11.3555514948306
84226099999,-2.55,-78.9333333,"CANAR, ECUADOR",3083,2024,10.4021276595745,0.960900528285992,47,11.3630281878605
74917900392,36.9,-121.417,"HOLLISTER MUNICIPAL AIRPORT, CA US",72.2,2024,10.4724165891694,0.893206710055637,362,11.365623299225
87563099999,-36.0666666,-59.1,"LAS FLORES, ARGENTINA",38,2024,10.1550816503142,1.21428512121349,211,11.3693667715277
94838099999,-35.7166666,142.35,"HOPETOUN AIRPORT, AUSTRALIA",78,2024,10.4125382781451,0.957363263568849,352,11.3699015417139
94657099999,-33.1333333,135.55,"KYANCUTTA, AUSTRALIA",58,2024,10.2070341495975,1.16599708495202,304,11.3730312345496
60457099999,35.8833333,0.1166666,"MOSTAGANEM, ALGERIA",138,2024,10.2980331273732,1.08125986112228,334,11.3792929884955
67551099999,-12.1666667,26.3666667,"SOLWEZI, ZAMBIA",1386,2024,8.27441047800698,3.11677016627468,9,11.3911806442817
95874099999,-37.7333333,145.1,"VIEWBANK ARPNSA, AUSTRALIA",66,2024,10.478717063636,0.916768135066864,340,11.3954851987029
86995099999,-32.0333333,-52.1,"RIO GRANDE, BRAZIL",3.96,2024,10.3231326874208,1.07529520674248,319,11.3984278941633
95654099999,-33.05,135.45,"WUDINNA AERO, AUSTRALIA",87,2024,10.3992901118062,1.00245071053937,355,11.4017408223456
94974099999,-42.1986111,145.17,"CAPE SORELL, AUSTRALIA",19.3,2024,9.06038194213863,2.3565183045931,50,11.4169002467317
56172099999,31.9,102.2333333,"BARKAM, CHINA",2666,2024,10.4503757355433,0.988305470076669,345,11.43868120562
8594499999,16.136531,-22.888897,"BOA VISTA RABIL, CAPE VERDE",21.03,2024,10.5760285184783,0.864024389774055,353,11.4400529082523
94601099999,-34.3666666,115.1333333,"CAPE LEEUWIN, AUSTRALIA",14,2024,10.3426183989339,1.09865299753716,341,11.441271396471
12122099999,54.55,16.62,"WICKO MORSKIE, POLAND",3,2024,7.06666666666667,4.37498882487461,6,11.4416554915413
95981099999,-41.3333333,148.2666666,"ST HELENS AERODROME, AUSTRALIA",49,2024,10.5824162924519,0.859454051346543,355,11.4418703437984
8505099999,38.519894,-28.715872,"HORTA, PORTUGAL",35.96,2024,10.3698026631563,1.08750607361296,350,11.4573087367693
94684099999,-32.5666666,139.5666666,"YUNTA AIRSTRIP, AUSTRALIA",300,2024,10.5087422545273,0.94959779619949,355,11.4583400507268
86845099999,-21.9833333,-47.8833333,"SAO CARLOS, BRAZIL",864.5,2024,10.6514487858331,0.807184123813515,300,11.4586329096466
86430099999,-32.365114,-58.061192,"TYDEO LARRE BORGES INTERNATIONAL, URUGUAY",55,2024,10.5018404344839,0.962173500724799,340,11.4640139352087
2403099999,58.7,13.1166666,"NAVEN, SWEDEN",53,2024,9.67530255508148,1.78975222071601,120,11.4650547757975
95823099999,-36.65,140.5166666,"PADTHAWAY SOUTH, AUSTRALIA",35,2024,10.5902808307073,0.875439004985553,355,11.4657198356928
60150099999,33.879067,-5.515125,"BASSATINE, MOROCCO",576.07,2024,10.3941526396854,1.07257703656877,355,11.4667296762542
87800099999,-41.943189,-71.532289,"EL BOLSON, ARGENTINA",344.72,2024,9.83738465313314,1.64646784325775,114,11.4838524963909
68715099999,-33.4666666,18.7166666,"MALMESBURY, SOUTH AFRICA",102,2024,10.4648697312148,1.01917153221952,349,11.4840412634343
71680099999,63.6,-113.85,"LOWER CARP LAKE NWT, CANADA",373,2024,9.89176697278527,1.59542710612116,95,11.4871940789064
94839099999,-36.2833333,143.35,"CHARLTON, AUSTRALIA",132,2024,10.6051680501253,0.884185140772077,355,11.4893531908974
87640099999,-36.2,-61.0666666,"BOLIVAR AERO, ARGENTINA",94,2024,10.6041573869718,0.889222104543847,350,11.4933794915157
87550099999,-35.45,-60.8833333,"NUEVE DE JULIO, ARGENTINA",76,2024,10.4831612724339,1.01037953468042,297,11.4935408071143
99817599999,35.17,-120.741,"CAL POLY PIER, UNITED STATES",4,2024,10.7094324371589,0.786485262684299,337,11.4959176998432
42045099999,33.5,75.1666666,"BANIHAL, INDIA",1630,2024,10.520352609318,0.983024381858232,308,11.5033769911763
2598099999,57.4333333,18.9833333,"OSTERGARNSHOLM, SWEDEN",5,2024,9.78706896551724,1.72553153063352,116,11.5126004961508
8014399999,39.5833333,-0.45,"VALENCIA, SPAIN",50,2024,10.5219256590434,0.9920103662464,355,11.5139360252898
94727099999,-32.5666666,149.6166666,"MUDGEE AIRPORT AWS, AUSTRALIA",472,2024,10.6221436659705,0.895213977998561,355,11.5173576439691
86953099999,-27.9166666,-53.3166666,"PALMEIRA DAS MISSOES, BRAZIL",643.5,2024,10.5078201014561,1.01328523879647,335,11.5211053402525
2540099999,58.6,12.2,"KROPPEFJALL GRANAN, SWEDEN",174,2024,9.89604391215979,1.62958212521119,120,11.525626037371
87641099999,-36.8333333,-59.8833333,"AZUL AERO, ARGENTINA",146,2024,10.5890962499367,0.939481217364366,357,11.5285774673011
94925099999,-35.4166666,149.1,"TUGGERANONG ISABELLA PLAINS, AUSTRALIA",588,2024,10.6482243485702,0.885406399813599,355,11.5336307483838
72491523259,36.59041,-121.84881,"MONTEREY PENINSUL AIRPORT, CA US",48.8,2024,10.6004515012185,0.933388825163677,360,11.5338403263822
87663099999,-37.235408,-57.029239,"VILLA GESELL, ARGENTINA",9.75,2024,10.495069805523,1.05009937826124,300,11.5451691837843
76423099999,24.05,-104.6,"DURANGO DGO., MEXICO",1872,2024,10.6839959058676,0.862722895807239,353,11.5467188016749
63766099999,-2.2833333,37.8333333,"MAKINDU, KENYA",1000,2024,10.9840092618035,0.566449712725488,346,11.550458974529
60672099999,24.2166666,5.5333333,"MERTOUEK, ALGERIA",1343,2024,10.6472964737109,0.907523934387321,354,11.5548204080982
86971099999,-28.9333333,-49.5,"ARARANGUA, BRAZIL",13.5,2024,10.4819188331991,1.08302908682491,349,11.564947920024
94934099999,-37.25,150.05,"GREEN CAPE AWS, AUSTRALIA",20,2024,10.5701134810214,0.996543876426005,351,11.5666573574474
68713099999,-33.7166666,18.9666666,"PAARL, SOUTH AFRICA",104,2024,10.5342899489901,1.03324290262427,350,11.5675328516144
44454099999,27.696592,85.359192,"TRIBHUVAN INTERNATIONAL, NEPAL",1338.07,2024,10.7390228646749,0.828834977610642,356,11.5678578422855
68396099999,-26.529022,31.307519,"MATSAPHA, SWAZILAND",633.37,2024,10.2480929773007,1.32065292420921,223,11.5687459015099
87548099999,-34.545889,-60.930556,"JUNIN, ARGENTINA",79.85,2024,10.6411595798444,0.927991320428757,357,11.5691509002732
68345099999,-28,26.6666666,"WELKOM, SOUTH AFRICA",1342,2024,10.6477048528254,0.927764631238902,354,11.5754694840643
68825099999,-33.5,21.2833333,"LADISMITH, SOUTH AFRICA",538,2024,10.5680251890679,1.02842405155414,352,11.5964492406221
68925099999,-34.1394444,19.0227778,"ELGIN EXPERIMENTAL FARM, SOUTH AFRICA",311,2024,10.5164925318939,1.08989001100584,349,11.6063825428997
86904099999,-23.1,-48.95,"AVARE, BRAZIL",726.5,2024,10.6456370442069,0.963595857745579,309,11.6092329019525
72493893231,37.51667,-122.25,"SAN CARLOS AIRPORT, CA US",1.5,2024,10.6902750473875,0.928241467974986,363,11.6185165153625
95612099999,-31.4666666,115.8666666,"GINGIN AERO, AUSTRALIA",75,2024,10.4460826482946,1.17407693914831,350,11.6201595874429
42705699999,13.2,77.7,"BANGALURU INTERNATIONAL AIRPORT, INDIA",915,2024,10.8972275067554,0.724529543111435,356,11.6217570498669
94677099999,-35.5166666,138.8166666,"HINDMARSH ISLAND AWS, AUSTRALIA",10,2024,10.7766447301538,0.847889747184857,355,11.6245344773386
93404099999,-40.3166666,175.6,"PALMERSTON NORTH AWS, NEW ZEALAND",39,2024,10.7345560716923,0.892956205225278,355,11.6275122769175
8176399999,41.5166667,2.1,"SABADELL, SPAIN",250,2024,10.6743263037127,0.959958172190176,354,11.6342844759029
16214099999,42.0166666,11.8166666,"CIVITAVECCHIA, ITALY",4,2024,10.6700635897946,0.967725097306126,345,11.6377886871007
95836099999,-36.4333333,145.2666666,"TATURA INST SUSTAINABLE AG, AUSTRALIA",114,2024,10.752312856499,0.887371480974655,355,11.6396843374737
68614099999,-31.640961,18.544789,"VREDENDAL, SOUTH AFRICA",100.58,2024,10.6506642881883,0.996825903761089,353,11.6474901919494
91285021504,19.71909,-155.04897,"HILO INTERNATIONAL AIRPORT 87, HI US",8.8,2024,11.0522299953698,0.595326426040957,366,11.6475564214107
86530099999,-33.358867,-56.499172,"SANTA BERNARDINA INTERNATIONAL, URUGUAY",92.96,2024,10.6674862761923,0.983476996011488,348,11.6509632722038
95835099999,-36.6666666,142.3,"LONGERENONG, AUSTRALIA",133,2024,10.7452444314071,0.915239442123388,355,11.6604838735305
86989099999,-30.8105556,-51.8347222,"CAMAQUA, BRAZIL",109.5,2024,10.5598921138785,1.10116422448477,304,11.6610563383633
68841099999,-33.45,25.75,"ADDO ELEPHANT PARK, SOUTH AFRICA",506,2024,10.4887164671722,1.17359274935868,334,11.6623092165308
86722099999,-15.75,-41.45,"AGUAS VERMELHAS, BRAZIL",751.5,2024,10.7853603139533,0.888532718636339,355,11.6738930325897
86777099999,-18.15,-47.9333333,"CATALAO, BRAZIL",891.5,2024,10.9821490157728,0.700669188943195,355,11.682818204716
64870099999,7.357011,13.559242,"NGAOUNDERE, CAMEROON",1114.04,2024,10.8961451363335,0.787679878669381,260,11.6838250150029
94889099999,-36.4166666,146.3,"WANGARATTA AERO, AUSTRALIA",153,2024,10.7709028774864,0.916829469508122,355,11.6877323469945
2615099999,55.3833333,12.8166666,"FALSTERBO A, SWEDEN",5,2024,9.89009009009009,1.79788451128815,111,11.6879746013782
68543099999,-30.5333333,25.5333333,"GARIEP DAM, SOUTH AFRICA",1272,2024,10.7255307737939,0.963835542394935,344,11.6893663161889
83554099999,-19,-57.6666666,"CORUMBA AEROPORTO, BRAZIL",141,2024,7.26813959454474,4.42157662679444,6,11.6897162213392
94865099999,-37.8666666,144.75,"LAVERTON RAAF, AUSTRALIA",20,2024,10.7924314205131,0.898317243480944,354,11.6907486639941
95833099999,-36.3333333,145.0666666,"KYABRAM INST SUSTAINABLE AG, AUSTRALIA",104,2024,10.8085908920129,0.893212189026479,355,11.7018030810393
86936099999,-26.2833333,-53.6333333,"DIONISIO CERQUEIRA, BRAZIL",811.5,2024,10.6136100179807,1.09435265885809,250,11.7079626768388
63333099999,11.0833333,39.7166667,"COMBOLCHA DESSIE, ETHIOPIA",1864,2024,8.69302328710064,3.01792914443532,12,11.710952431536
8390599999,37.3166666,-6,"SEVILLA HELIPORT, SPAIN",5,2024,10.5605734015586,1.1519844529453,241,11.7125578545039
94857099999,-38.1666666,144.3666666,"GEELONG RACECOURSE, AUSTRALIA",35,2024,10.8234811228614,0.89464622532678,347,11.7181273481881
60320099999,35.88873,-5.34697,"CEUTA, SPAIN",88,2024,10.7488397142785,0.96949549020918,355,11.7183352044877
2527099999,57.6666666,12.2911111,"GOTEBORG LANDVETTER, SWEDEN",164,2024,10.2796989502205,1.43992728961663,120,11.7196262398371
7775099999,42.2666666,9.5333333,"ALISTRO, FRANCE",74,2024,10.7575453931192,0.96934082136236,355,11.7268862144816
2197099999,65.8166666,24.1166666,"HAPARANDA, SWEDEN",16,2024,9.85426023008353,1.87559437602642,107,11.7298546061099
68343099999,-27.65,25.6166666,"BLOEMHOF, SOUTH AFRICA",1128,2024,10.7870566593292,0.943924211498823,352,11.7309808708281
83708099999,-22.791608,-45.204778,"GUARATINGUETA, BRAZIL",536.75,2024,10.877525390122,0.857960487489363,352,11.7354858776114
86963099999,-28.2294444,-52.4038889,"PASSO FUNDO, BRAZIL",685.5,2024,10.725454558668,1.01152484612341,354,11.7369794047914
