Station ID,Latitude,Longitude,Name,Elevation,Weighted Average Weatherscore,Rank,Percentile
94290099999,-17.7166666,148.45,"FLINDERS REEF, AUSTRALIA",7.0,2.4081126251441,18144,100.0
97284099999,-8.6333333,120.45,"RUTENG SATAR TACIK, INDONESIA",1170.0,2.55093799537667,18143,99.99448823237613
64383099999,-1.5,29.6333333,"RUHENGERI, RWANDA",1855.7,2.66818578974522,18142,99.98897646475224
64381099999,-1.677203,29.258875,"GISENYI, RWANDA",1548.99,2.79176432568159,18141,99.98346469712837
92014599999,-5.826789,144.295861,"MOUNT HAGEN, PAPUA NEW GUINEA",1642.26,2.84402436056189,18140,99.97795292950448
97780099999,-3.9166667,136.3666667,"ENAROTALI, INDONESIA",1770.0,3.09989660405366,18139,99.97244116188061
41452099999,14.0,44.3333333,"IBB, YEMEN",1920.0,3.15470640107802,18138,99.96692939425674
63694399999,-0.0666667,37.0333333,"NANYUKI, KENYA",1905.0,3.22922996737206,18137,99.96141762663287
67441099999,-11.75,24.4333333,"MWINILUNGA, ZAMBIA",1363.0,3.25663073338743,18136,99.955905859009
63688099999,0.404458,35.2388992,"EL DORET INTERNATIONAL, KENYA",2150.06,3.25826676882497,18135,99.9503940913851
63641099999,2.3,37.9,"MARSABIT, KENYA",1345.0,3.32181605902299,18134,99.94488232376123
63714099999,-0.2666667,36.1,"NAKURU, KENYA",1901.0,3.32270327718756,18133,99.93937055613735
63881099999,-7.9666667,31.63,"SUMBAWANGA, TANZANIA",1923.0,3.38367463556368,18132,99.93385878851348
76654699999,19.396692,-102.039056,"LICENCIADO Y GEN IGNACIO LOPEZ RAYON, MEXICO",1602.63,3.45238846246004,18131,99.92834702088959
63709099999,-0.6666667,34.7833333,"KISII, KENYA",1493.0,3.46564607132764,18130,99.92283525326572
80479099999,10.3,-68.2333333,"PALMICHAL, VENEZUELA",1000.0,3.50409247371777,18129,99.91732348564184
63661099999,0.971989,34.958556,"KITALE, KENYA",1850.13,3.53110498668313,18128,99.91181171801797
64380099999,-2.4666666,28.9166666,"KAMEMBE, RWANDA",1587.4,3.57758696990108,18127,99.9062999503941
69729499999,0.0,0.0,AFWA ASSIGNED,0.0,3.59619562743241,18126,99.90078818277021
63694499999,0.2333333,38.1833333,"MULIKA, KENYA",679.7,3.61270855750205,18125,99.89527641514634
78641099999,14.583272,-90.527475,"LA AURORA, GUATEMALA",1509.36,3.62437855541088,18124,99.88976464752245
64184099999,-1.6833333,29.2333333,"GOMA, ZAIRE",1552.0,3.64670783224712,18123,99.88425287989858
97686099999,-4.102511,138.957372,"WAMENA, INDONESIA",1549.9,3.64697092661278,18122,99.87874111227471
85432099999,-22.5,-68.9,"CALAMA, CHILE",2320.0,3.68093971099118,18121,99.87322934465082
78627099999,15.3166667,-91.4666667,"HUEHUETENANGO, GUATEMALA",1901.0,3.69498835386653,18120,99.86771757702695
94787099999,-31.433,152.917,"PORT MACQUARIE, AUSTRALIA",9.0,3.77346825483674,18119,99.86220580940306
63742099999,-1.321719,36.814833,"NAIROBI WILSON, KENYA",1687.37,3.82685348893435,18118,99.8566940417792
84076099999,-0.2166666,-78.3666666,"LA TOLA, ECUADOR",2480.0,3.869217188521,18117,99.85118227415532
63332099999,11.608075,37.321644,"BAHIR DAR, ETHIOPIA",1822.09,3.90467434871821,18116,99.84567050653145
43476099999,6.8166666,80.9666666,"DIYATALAWA, SRI LANKA",1250.0,3.91497455989643,18115,99.84015873890758
63695099999,0.0833333,37.65,"MERU, KENYA",1554.0,3.9163777866909,18114,99.83464697128369
76683099999,19.3166666,-98.25,"TLAXCALA TLAX., MEXICO",2248.0,3.9379249090201,18113,99.82913520365982
63686099999,0.4833333,35.3,"ELDORET, KENYA",2120.0,3.97757257742791,18112,99.82362343603593
98328099999,16.375103,120.619636,"BAGUIO, PHILIPPINES",1295.7,3.97972969047762,18111,99.81811166841206
63720099999,-0.5,37.45,"EMBU, KENYA",1493.0,3.98215082388063,18110,99.81259990078819
16750099999,35.533,23.817,"TAVRONITIS BEACH, GREECE",25.0,3.98517831887599,18109,99.8070881331643
96751099999,-6.7,106.9333333,"BOGOR CITEKO, INDONESIA",-999.9,4.03787060342289,18108,99.80157636554043
92010099999,-6.0666666,145.3833333,"GOROKA ATS, PAPUA NEW GUINEA",1587.0,4.04015789284286,18107,99.79606459791655
66390099999,-14.924733,13.575022,"LUBANGO, ANGOLA",1761.13,4.06253135395979,18106,99.79055283029268
95289099999,-16.7666666,145.9666666,"GREEN ISLAND, AUSTRALIA",3.0,4.06542973642238,18105,99.7850410626688
84075099999,-0.4,-76.6,"LIMONCOCHA, ECUADOR",221.0,4.09140490054637,18104,99.77952929504492
63739099999,-1.277267,36.862339,"NAIROBI EASTLEIGH, KENYA",1639.82,4.09756019395569,18103,99.77401752742104
84056099999,0.033,-78.233,"TOMALON, ECUADOR",2790.0,4.11545305329957,18102,99.76850575979716
67107099999,-19.8166667,47.0666667,"ANTSIRABE, MADAGASCAR",1532.0,4.1188884147473,18101,99.76299399217329
63740099999,-1.319239,36.927775,"NAIROBI JKIA, KENYA",1623.66,4.12655032480094,18100,99.7574822245494
41399099999,15.7666666,44.0166666,"AMRAN, YEMEN",15.0,4.13311973534846,18099,99.75197045692553
63726099999,-1.25,29.9833333,"KABALE, UGANDA",1869.0,4.17174702992346,18098,99.74645868930165
66318099999,-12.808878,15.760547,"HUAMBO, ANGOLA",1702.91,4.27626664116595,18097,99.74094692167779
80438099999,8.582294,-71.161186,"ALBERTO CARNEVALLI, VENEZUELA",1526.13,4.28615372029963,18096,99.7354351540539
63741099999,-1.3,36.75,"NAIROBI DAGORETTI, KENYA",1798.0,4.36352481505126,18095,99.72992338643003
66325099999,-12.404633,16.947414,"KUITO, ANGOLA",1712.36,4.36589603682574,18094,99.72441161880616
63451099999,8.7333333,39.0,"HARAR MEDA MIL, ETHIOPIA",1876.0,4.38990648723227,18093,99.71889985118227
48057099999,20.7833333,97.05,"TAUNGGYI, BURMA",1436.0,4.39905744170845,18092,99.7133880835584
78734099999,13.0833333,-85.9833333,"JINOTEGA, NICARAGUA",985.0,4.40311253561862,18091,99.70787631593451
16145099999,44.4666666,12.2833333,"PUNTA MARINA, ITALY",6.0,4.43423119565361,18090,99.70236454831064
76665599999,19.849944,-101.0255,"GENERAL FRANCISCO J MUJICA INTERNATIONAL, MEXICO",1838.85,4.44523909025027,18089,99.69685278068677
63710099999,-0.3666667,35.35,"KERICHO, KENYA",2184.0,4.46692000051551,18088,99.69134101306288
78719099999,14.3333333,-88.1666667,"LA ESPERANZA, HONDURAS",1100.0,4.49307361262803,18087,99.68582924543902
84673099999,-13.154819,-74.204417,"CORONEL FAP ALFREDO MENDIVIL DUARTE, PERU",2717.9,4.4946012846757,18086,99.68031747781514
76685099999,19.158144,-98.371447,"HERMANOS SERDAN INTERNATIONAL, MEXICO",2243.63,4.49460696510059,18085,99.67480571019127
76680099999,19.4,-99.1833333,"MEXICO CENTRAL D.F., MEXICO",2303.0,4.56913600396049,18084,99.66929394256738
40432099999,25.8333333,42.25,"UQLAT AL SUQ0R, SAUDI ARABIA",783.0,4.60198179391186,18083,99.6637821749435
63737099999,-1.1333333,35.8333333,"NAROK, KENYA",1890.0,4.63247915217584,18082,99.65827040731963
80308099999,2.4544,-76.609319,"GUILLERMO LEON VALENCIA, COLOMBIA",1733.39,4.63306840065385,18081,99.65275863969575
63533099999,5.2833333,39.75,"NEGHELLI MIL, ETHIOPIA",1455.0,4.64356228332325,18080,99.64724687207188
85486099999,-28.596403,-70.755997,"VALLENAR, CHILE",525.78,4.66355855097603,18079,99.64173510444799
63331099999,12.5199,37.434047,"GONDER, ETHIOPIA",1965.65,4.66889378986026,18078,99.63622333682412
76845099999,16.75,-92.6333333,"SN. CRISTOBAL LAS CASAS CHIS., MEXICO",2116.0,4.67286624852796,18077,99.63071156920024
78762599999,9.95,-84.133,"TOBIAS BOLANOS INTERNATIONAL, COSTA RICA",1019.0,4.69577016350011,18076,99.62519980157637
83579099999,-19.5666666,-46.9333333,"ARAXA, BRAZIL",1004.0,4.69755350594145,18075,99.61968803395249
63717099999,-0.5,36.9666667,"NYERI, KENYA",1759.0,4.70891564707672,18074,99.61417626632861
69142499999,,,,,4.73472,18073,99.60866449870474
69188499999,,,,,4.77253574471638,18072,99.60315273108085
41404099999,15.476258,44.219739,"SANAA INTERNATIONAL, YEMEN",2205.83,4.77327569401411,18071,99.59764096345698
80112099999,6.164536,-75.423119,"JOSE MARIA CORDOVA, COLOMBIA",2142.13,4.77572747731212,18070,99.5921291958331
63340099999,9.0833333,36.45,"LEKEMTE, ETHIOPIA",2080.0,4.77655390178092,18069,99.58661742820922
48632099999,4.4666666,101.3666666,"CAMERON HIGHLANDS, MALAYSIA",1545.0,4.78232523414115,18068,99.58110566058535
91961099999,-25.0666666,-130.1,"PITCAIRN ISLAND AWS A, PITCAIRN ISLANDS",265.0,4.78812270732996,18067,99.57559389296148
76848099999,16.25,-92.1333333,"COMITAN CHIS., MEXICO",1646.0,4.80263554893207,18066,99.5700821253376
63738099999,-1.883,36.283,"MAGADI, KENYA",622.0,4.87044726071229,18065,99.56457035771372
67413099999,-8.85,31.3333333,"MBALA, ZAMBIA",1673.0,4.92981175901622,18064,99.55905859008985
76681099999,19.3166666,-99.1833333,"GEOGRAFIA UNAM, MEXICO",2278.0,4.97884077220922,18063,99.55354682246596
78501099999,17.407306,-83.932694,"ISLAS DEL CISNE, HONDURAS",2.0,5.02609048850254,18062,99.54803505484209
67217099999,-13.273986,35.266262,"LICHINGA, MOZAMBIQUE",1373.12,5.04187480120382,18061,99.54252328721822
67586099999,-13.789378,33.781,"LILONGWE INTERNATIONAL, MALAWI",1261.0,5.05372642886005,18060,99.53701151959433
85410099999,-26.467,-69.433,"CHORRILLOS, CHILE",3200.0,5.08201909238966,18059,99.53149975197046
84043099999,0.338419,-78.136422,"ATAHUALPA, ECUADOR",2226.25,5.1006200319104,18058,99.52598798434657
76775599999,17.0,-96.7333333,"XOXOCOTLAN INTERNATIONAL, MEXICO",1520.64,5.10288965754646,18057,99.5204762167227
80094099999,7.1265,-73.184778,"PALONEGRO, COLOMBIA",1187.8,5.13095425906272,18056,99.51496444909883
63460099999,7.10131,38.39664,"AWASSA LAKE, ETHIOPIA",1739.0,5.13643544730047,18055,99.50945268147495
86871099999,-22.3166666,-45.3666666,"MARIA DA FE, BRAZIL",1277.5,5.16097562651813,18054,99.50394091385107
63450099999,8.977889,38.799319,"BOLE INTERNATIONAL, ETHIOPIA",2325.62,5.17855501672518,18053,99.4984291462272
63333099999,11.0833333,39.7166667,"COMBOLCHA DESSIE, ETHIOPIA",1864.0,5.19608420631418,18052,99.49291737860332
41390099999,13.6833333,44.15,"TAIZ CIV MIL, YEMEN",1385.0,5.19746074576183,18051,99.48740561097944
84072599999,-0.1166666,-78.3666666,"MARISCAL SUCRE INTERNATIONAL AIRPORT, ECUADOR",2400.0,5.23457103684116,18050,99.48189384335556
41434099999,14.5833333,44.4166666,"DHAMAR, YEMEN",2425.0,5.25256981375156,18049,99.47638207573168
84072099999,-0.1666666,-78.4833333,"INAQUITO, ECUADOR",2812.0,5.30520258691838,18048,99.4708703081078
60034099999,23.718294,-15.931994,"DAKHLA, WESTERN SAHARA",6.09,5.31262536801018,18047,99.46535854048393
63887099999,-7.668633,35.752114,"IRINGA, TANZANIA",1425.85,5.36058381598767,18046,99.45984677286006
83681099999,-21.9166666,-46.3833333,"CALDAS, BRAZIL",1150.0,5.37567816012787,18045,99.45433500523619
76634099999,20.0833333,-98.3666666,"TULANCINGO HGO., MEXICO",2181.0,5.39116790816723,18044,99.4488232376123
84163099999,-1.5,-78.05,"SHELL MERA AEROPUERTO, ECUADOR",1054.0,5.41401876919903,18043,99.44331146998843
16717099999,37.9833333,23.5666666,"PIRAEUS, GREECE",2.0,5.41794039407718,18042,99.43779970236454
76675099999,19.2833333,-99.6833333,"TOLUCA MEX., MEXICO",2720.0,5.41844070908752,18041,99.43228793474067
84721099999,-15.3833333,-75.1666667,"SAN JUAN DE MARCONA, PERU",60.0,5.42548665081387,18040,99.4267761671168
63729099999,-1.3333333,31.8166667,"BUKOBA, TANZANIA",1137.0,5.44837519502028,18039,99.42126439949291
64900099999,5.55,12.3666666,"YOKO, CAMEROON",1031.0,5.46837675689351,18038,99.41575263186904
85470099999,-27.296111,-70.413611,"CHAMONATE, CHILE",298.0,5.4823654859209,18037,99.41024086424515
68587099999,-31.0666666,30.2333333,"PORT EDWARD, SOUTH AFRICA",12.0,5.50570013328552,18036,99.4047290966213
84006099999,-1.5,-78.067,"RIO AMAZONAS, ECUADOR",1043.0,5.50835913976004,18035,99.39921732899741
64892099999,6.039239,10.122639,"BAMENDA, CAMEROON",1239.01,5.51005140167686,18034,99.39370556137354
84217099999,-2.299167,-78.12075,"CORONEL E CARVAJAL, ECUADOR",1052.16,5.51980025006406,18033,99.38819379374965
68265099999,-25.9833333,28.1333333,"GRAND CENTRAL, SOUTH AFRICA",1621.0,5.52682956774822,18032,99.38268202612578
63789099999,-3.367794,36.633333,"ARUSHA, TANZANIA",1386.84,5.53520632083796,18031,99.3771702585019
63687099999,0.271342,34.787297,"KAKAMEGA, KENYA",1530.09,5.53749098564243,18030,99.37165849087802
93012099999,-35.1333333,173.2666666,"KAITAIA OBSERVATORY, NEW ZEALAND",85.0,5.54849595247878,18029,99.36614672325415
76423599999,24.124194,-104.528014,"DURANGO INTERNATIONAL, MEXICO",1860.49,5.55337928368493,18028,99.36063495563026
63705099999,0.042386,32.443503,"ENTEBBE INTERNATIONAL, UGANDA",1152.75,5.55783148039491,18027,99.35512318800639
63402099999,7.666094,36.816639,"JIMMA, ETHIOPIA",1676.4,5.57253139068507,18026,99.34961142038252
76577399999,20.9833333,-101.4833333,"GUANAJUATO INTERNATIONAL, MEXICO",1815.38,5.58448788817059,18025,99.34409965275864
84239099999,-2.889467,-78.984397,"MARISCAL LAMAR, ECUADOR",2531.66,5.58911727712798,18024,99.33858788513477
63932099999,-8.9333333,33.4666667,"MBEYA, TANZANIA",1707.0,5.60038551935003,18023,99.33307611751088
86691099999,-14.1333333,-47.5166666,"ALTO PARAISO DE GOIAS, BRAZIL",1261.5,5.61242207260906,18022,99.32756434988701
76679399999,19.436303,-99.072097,"LICENCIADO BENITO JUAREZ INTERNATIONAL, MEXICO",2229.91,5.63003782659001,18021,99.32205258226313
84564099999,-9.878811,-76.204797,"ALFEREZ FAP D F FERNANDINI, PERU",1850.13,5.63604819983095,18020,99.31654081463925
69345499999,,,,,5.67585855752914,18019,99.31102904701538
16759099999,35.0663889,24.75,"TYMBAKION AIRPORT, GREECE",7.0,5.68685969673432,18018,99.3055172793915
76625099999,20.617289,-100.185658,"QUERETARO INTERCONTINENTAL, MEXICO",1919.02,5.69075197146538,18017,99.30000551176762
86781099999,-18.2333333,-43.65,"DIAMANTINA, BRAZIL",1357.5,5.69310461906834,18016,99.29449374414374
69726499999,,,,,5.6993352297809,18015,99.28898197651988
67775099999,-17.930219,31.094329,"ROBERT GABRIEL MUGABE INTERNATIONAL HARARE, ZIMBABWE",1489.56,5.74696246735659,18014,99.28347020889599
80210099999,4.812675,-75.739519,"MATECANA, COLOMBIA",1345.99,5.75630808789309,18013,99.27795844127212
48031099999,22.9166666,93.6833333,"FALAM, BURMA",1372.0,5.7750579536726,18012,99.27244667364825
85469099999,-27.164792,-109.421831,"MATAVERI INTERNATIONAL, CHILE",69.18,5.80508366530641,18011,99.26693490602436
85223099999,-17.421058,-66.177114,"JORGE WILSTERMAN, BOLIVIA",2548.12,5.83309564093189,18010,99.26142313840049
91958099999,-27.6166666,-144.3333333,"RAPA, FRENCH POLYNESIA",2.0,5.84358222524972,18009,99.2559113707766
56951099999,23.95,100.2166666,"LINCANG, CHINA",1503.0,5.84637499232423,18008,99.25039960315273
76571099999,21.705461,-102.317869,"JESUS TERAN INTERNATIONAL, MEXICO",1862.93,5.87248132662482,18007,99.24488783552886
41438099999,14.1333333,44.3666666,"AL SADDAH, YEMEN",2692.0,5.87596916400973,18006,99.23937606790497
67765099999,-16.8333333,29.6166667,"KAROI, ZIMBABWE",1344.0,5.89971839587144,18005,99.2338643002811
64387099999,-1.968628,30.13945,"KIGALI INTERNATIONAL, RWANDA",1481.02,5.90542787985595,18004,99.22835253265723
76601599999,20.755833,-103.465278,"ZAPOPAN, MEXICO",1625.49,5.91485973896544,18003,99.22284076503335
63702099999,-0.6166667,30.65,"MBARARA, UGANDA",1413.0,5.91612899558022,18002,99.21732899740947
68933099999,-34.0333333,23.9,"TSITSIKAMMA, SOUTH AFRICA",5.0,5.91620681130312,18001,99.2118172297856
76613399999,20.5218,-103.311167,"DON MIGUEL HIDALGO Y COSTILLA INTERNATIONAL, MEXICO",1528.87,5.92141984349247,18000,99.20630546216171
80110099999,6.219958,-75.590519,"OLAYA HERRERA, COLOMBIA",1505.71,5.94921581824989,17999,99.20079369453784
63619099999,3.5333333,39.05,"MOYALE LOWER ODA, KENYA",1097.0,5.96799577663153,17998,99.19528192691396
40450099999,23.7333333,44.6333333,"AL KHUSARIAH, SAUDI ARABIA",1080.0,5.98582540421011,17997,99.18977015929008
84270099999,-4.0333333,-79.2,"LOJA LA ARGELIA, ECUADOR",2160.0,5.98966371762596,17996,99.1842583916662
60007099999,28.0333333,-17.2166666,"LA GOMERA AEROPUERTO, SPAIN",219.0,5.99968270749137,17995,99.17874662404233
76727099999,18.7,-99.1666666,"ZACATEPEC MOR, MEXICO",995.78,6.00172249036022,17994,99.17323485641846
63330099999,13.467367,39.533464,"MEKELE, ETHIOPIA",2254.3,6.00467229857379,17993,99.16772308879457
67476099999,-10.1,31.25,"MISAMFU, ZAMBIA",1536.0,6.0282869577724,17992,99.1622113211707
64893099999,5.636919,10.750817,"FOUMBAN NKOUNJA, CAMEROON",1207.92,6.03147629706919,17991,99.15669955354683
76665099999,19.7,-101.1833333,"MORELIA MICH., MEXICO",1913.0,6.04378477279128,17990,99.15118778592294
68837099999,-33.8,25.6666666,"NGQURA COEGA, SOUTH AFRICA",46.0,6.05581231216056,17989,99.14567601829907
80342099999,1.392844,-77.290822,"ANTONIO NARINO, COLOMBIA",1813.86,6.06682389389967,17988,99.14016425067518
86715099999,-15.7833333,-47.9333333,"BRASILIA, BRAZIL",1161.04,6.09695468504393,17987,99.13465248305131
60020099999,28.45,-16.25,"STA. CRUZ DE TENERIFE, SPAIN",36.0,6.11293405810899,17986,99.12914071542744
8522099999,32.6333333,-16.9,"FUNCHAL, PORTUGAL",56.0,6.11889484751025,17985,99.12362894780357
68847099999,-33.6,26.8833333,"PORT ALFRED, SOUTH AFRICA",37.0,6.12775579746739,17984,99.1181171801797
76632099999,20.1333333,-98.75,"PACHUCA HGO., MEXICO",2435.0,6.13281544315337,17983,99.11260541255581
60250099999,30.381353,-9.546311,"INEZGANE, MOROCCO",27.12,6.13299346713683,17982,99.10709364493194
83566099999,-19.6166667,-43.9666667,"CONFINS AERO, BRAZIL",827.0,6.13903967077915,17981,99.10158187730805
41405099999,16.967,43.733,"SAADA SADAH, YEMEN",1890.0,6.16074934718542,17980,99.09607010968418
63403099999,8.1666667,35.55,"GORE, ETHIOPIA",1974.0,6.1608229329047,17979,99.09055834206029
68006899999,-17.8,15.7,"OSHAKATI, NAMIBIA",1097.28,6.17954365764379,17978,99.08504657443642
99999993134,34.0236,-118.2911,"LOS ANGELES DOWNTOWN USC, CA US",54.6,6.19284056585256,17977,99.07953480681255
60146099999,33.7166666,-7.4,"MOHAMMEDIA, MOROCCO",5.0,6.1975702306245,17976,99.07402303918866
68007199999,-17.8839,15.06665,"OKAHAO, NAMIBIA",1097.28,6.20896283884489,17975,99.06851127156479
41168099999,25.3,51.55,"DOHA PORT, QATAR",4.0,6.20998215134988,17974,99.06299950394092
68185099999,-25.1,30.4666666,"LYDENBURG, SOUTH AFRICA",1434.0,6.22485786443866,17973,99.05748773631704
42574099999,24.5333333,81.3,"REWA, INDIA",299.0,6.22712820319485,17972,99.05197596869316
84782099999,-18.053333,-70.275833,"CORONEL CARLOS CIRIANI SANTA ROSA INTERNATIONAL, PERU",468.78,6.22921896264606,17971,99.04646420106928
78631099999,15.468958,-90.406742,"COBAN, GUATEMALA",1322.52,6.24942546162462,17970,99.04095243344541
83689099999,-21.267167,-43.761056,"MAJOR BRIGADEIRO DOORGAL BORGES, BRAZIL",1114.65,6.26051406328918,17969,99.03544066582153
92005099999,-5.8333333,144.3,"MOUNT HAGEN ATS, PAPUA NEW GUINEA",1631.0,6.26687126551221,17968,99.02992889819765
69220499999,,,,,6.27761269427487,17967,99.02441713057377
63021099999,15.291853,38.910667,"ASMARA INTERNATIONAL, ERITREA",2335.07,6.31278502490081,17966,99.0189053629499
84600099999,-11.8391,-76.3779,"MATUCANA, PERU",2417.0,6.3128272319274,17965,99.01339359532602
13612099999,41.3,19.467,"DURRES, ALBANIA",8.0,6.31343086905016,17964,99.00788182770215
48045099999,21.3833333,93.95,"MINDAT, BURMA",1395.0,6.32043722885577,17963,99.00237006007828
76471099999,23.6333333,-103.65,"SOMBRERETE ZAC., MEXICO",2351.0,6.35370509196384,17962,98.99685829245439
65134099999,9.639828,8.86905,"YAKUBU GOWON, NIGERIA",1289.91,6.36301714727599,17961,98.99134652483052
93994099999,-29.25,-177.9333333,"RAOUL ISLAND AWS, NEW ZEALAND",49.5,6.38716143083151,17960,98.98583475720663
85264099999,-18.4666666,-64.1,"VALLEGRANDE, BOLIVIA",1998.0,6.40090313831477,17959,98.98032298958276
83419099999,-16.229153,-48.964267,"BASE AEREA, BRAZIL",1136.29,6.42211097005107,17958,98.97481122195887
67781099999,-17.431917,32.184502,"MUTOKO, ZIMBABWE",1203.96,6.42260724193747,17957,98.969299454335
67489099999,-11.44475,34.011776,"MZUZU, MALAWI",1254.25,6.45890482609693,17956,98.96378768671113
83525399999,-18.883,-48.217,"UBERLANDIA, BRAZIL",967.0,6.47397957110656,17955,98.95827591908724
94995099999,-31.54222,159.07861,"LORD HOWE ISLAND AERO, AUSTRALIA",7.0,6.48538603684535,17954,98.95276415146338
67881099999,-18.5333333,32.1333333,"RUSAPE, ZIMBABWE",1430.0,6.49830327833473,17953,98.9472523838395
68591099999,-30.85,30.3333333,"MARGATE, SOUTH AFRICA",154.0,6.50231926800156,17952,98.94174061621563
69067499999,,,,,6.50807657627234,17951,98.93622884859174
91948099999,-23.1333333,-134.9666666,"MANGAREVA, FRENCH POLYNESIA",89.0,6.51214565140929,17950,98.93071708096787
68277099999,-25.7666666,29.55,"MIDDELBURG DAM, SOUTH AFRICA",1527.0,6.53137309071366,17949,98.925205313344
63334099999,10.35,37.7166667,"DEBRE MARCOS, ETHIOPIA",2476.0,6.54448973585153,17948,98.91969354572011
61995099999,-20.3,57.4666666,"VACOAS MAURITIUS, MAURITIUS",425.0,6.56129793475063,17947,98.91418177809624
91170022508,21.48722,-158.02806,"WHEELER ARMY AIR FIELD 810.1, HI US",257.9,6.57597644615065,17946,98.90867001047235
60005099999,28.626478,-17.755611,"LA PALMA, SPAIN",32.61,6.58206870991997,17945,98.90315824284848
84501099999,-8.081411,-79.108761,"CAPITAN CARLOS MARTINEZ DE PINILLOS, PERU",32.3,6.5848812786643,17944,98.8976464752246
69613499999,0.0,0.0,AFWA ASSIGNED,0.0,6.59651250570443,17943,98.89213470760073
68273099999,-25.8333333,29.1833333,"WITBANK, SOUTH AFRICA",1550.0,6.60578439771231,17942,98.88662293997686
76687099999,19.55,-96.9166666,"JALAPA VER., MEXICO",1389.0,6.6158547531775,17941,98.88111117235297
41565099999,33.8166666,71.8833333,"CHERAT, PAKISTAN",1372.0,6.61882081856077,17940,98.8755994047291
84691099999,-13.744864,-76.220284,"PISCO INTERNATIONAL, PERU",11.88,6.62212217804237,17939,98.87008763710521
83587099999,-19.63375,-43.968856,"TANCREDO NEVES INTERNATIONAL, BRAZIL",827.53,6.62988128311955,17938,98.86457586948134
76539099999,22.254303,-100.930806,"PONCIANO ARRIAGA INTERNATIONAL, MEXICO",1839.46,6.63558432144994,17937,98.85906410185747
94405099999,-28.3,113.6,"NORTH ISLAND, AUSTRALIA",11.0,6.64470832356687,17936,98.85355233423358
67867099999,-19.436394,29.861911,"GWERU THORNHILL, ZIMBABWE",1426.46,6.6452229077183,17935,98.84804056660971
67667099999,-15.55,28.25,"MOUNT MAKULU, ZAMBIA",1213.0,6.64800432150134,17934,98.84252879898582
83344099999,-14.862761,-40.863106,"VITORIA DA CONQUISTA, BRAZIL",913.79,6.65156182950122,17933,98.83701703136197
68361099999,-26.15,28.0,"JOHANNESBURG BOT. GARDENS, SOUTH AFRICA",1626.0,6.65604870585482,17932,98.83150526373808
76738099999,18.9,-96.9333333,"CORDOBA IN VERACRUZ, MEXICO",882.7,6.67011545560121,17931,98.82599349611421
86673099999,-13.15,-41.7666666,"PIATA, BRAZIL",1291.5,6.68271209497677,17930,98.82048172849032
68098099999,-22.979889,14.645331,"WALVIS BAY, NAMIBIA",91.13,6.69840924098434,17929,98.81496996086645
68002099999,-22.612239,17.080442,"EROS, NAMIBIA",1699.26,6.70882394282742,17928,98.80945819324258
86850099999,-21.2166666,-43.7666666,"BARBACENA, BRAZIL",1156.5,6.71119409701679,17927,98.80394642561869
64360099999,-11.591333,27.530889,"LUBUMBASHI INTERNATIONAL, ZAIRE",1309.11,6.71219136905319,17926,98.79843465799482
91962099999,-25.0666666,-130.1,"PITCAIRN ISLAND AWS B, PITCAIRN ISLANDS",265.0,6.72726831691983,17925,98.79292289037093
76737099999,18.85,-97.1,"ORIZABA VER., MEXICO",1259.0,6.74198279101943,17924,98.78741112274706
80462099999,4.554722,-61.144922,"SANTA ELENA DE UAIREN, VENEZUELA",895.8,6.74202952458146,17923,98.78189935512319
48030099999,22.65,93.6333333,"HAKHA, BURMA",1865.98,6.74943475237644,17922,98.77638758749931
94594099999,-27.0333333,153.4666666,"CAPE MORETON LIGHTHOUSE AWS, AUSTRALIA",101.0,6.75304242981763,17921,98.77087581987544
91190599999,20.783,-156.95,"LANAI, HI US",399.0,6.76359623262177,17920,98.76536405225156
78647599999,14.86555,-91.501981,"QUEZALTENANGO, GUATEMALA",2431.0,6.80553032922423,17919,98.75985228462768
95591099999,-27.2166666,153.1,"REDCLIFFE, AUSTRALIA",13.0,6.80781904792198,17918,98.7543405170038
83525099999,-18.8833333,-48.22,"UBERLANDIA AERO, BRAZIL",943.0,6.80927550459028,17917,98.74882874937992
56964099999,22.7666666,100.9833333,"SIMAO, CHINA",1303.0,6.81341092836846,17916,98.74331698175605
67225099999,-14.917,33.617,"FURANCUNGO, MOZAMBIQUE",1262.0,6.82521184750411,17915,98.73780521413217
56856099999,24.433,100.85,"JING DONG, CHINA",1676.0,6.83494927095725,17914,98.7322934465083
94589099999,-29.4333333,153.3666666,"YAMBA PILOT STATION, AUSTRALIA",30.0,6.84866831613434,17913,98.72678167888442
67083099999,-18.796936,47.478869,"IVATO, MADAGASCAR",1279.55,6.85316309601727,17912,98.72126991126055
48387099999,16.75,98.9333333,"DOI MU SOE AGROMET, THAILAND",368.0,6.85486795927225,17911,98.71575814363666
63474099999,7.1333333,40.0,"ROBE BALE, ETHIOPIA",2480.0,6.87064417901943,17910,98.71024637601279
83644099999,-21.843014,-46.567917,"POCOS DE CALDAS, BRAZIL",1260.34,6.88334430409487,17909,98.70473460838892
67085099999,-18.8666666,47.5,"ANTANANARIVO VILLE, MADAGASCAR",1310.0,6.88587387129608,17908,98.69922284076503
48302099999,19.9166666,99.0333333,"DOI ANG KHANG, THAILAND",1530.0,6.89813030835838,17907,98.69371107314116
64328099999,-10.765886,25.505714,"KOLWEZI, ZAIRE",1526.13,6.90163790287941,17906,98.68819930551727
85921199999,-22.498175,-68.903575,"EL LOA, CHILE",2299.1,6.90534635689056,17905,98.6826875378934
84773099999,-17.695036,-71.343964,"ILO, PERU",21.94,6.90908881923627,17904,98.67717577026951
68104099999,-22.8833333,14.4333333,"WALVIS BAY PELICAN POINT, NAMIBIA",0.0,6.92321449514354,17903,98.67166400264566
86761099999,-17.7,-42.3833333,"CAPELINHA, BRAZIL",933.5,6.92816382418635,17902,98.66615223502177
41315099999,17.25,54.0833333,"QAIROON HAIRITI, OMAN",881.0,6.92904479210911,17901,98.6606404673979
86825099999,-20.2666666,-42.1833333,"MANHUACU, BRAZIL",837.5,6.93023971048255,17900,98.65512869977402
94570099999,-26.3833333,153.0333333,"TEWANTIN RSL PARK, AUSTRALIA",7.0,6.93921259276523,17899,98.64961693215014
10376099999,52.117,13.617,"BARUTH, GERMANY",57.0,6.95337200176798,17898,98.64410516452627
68843099999,-33.5666666,26.8833333,"PORT ALFRED AIRPORT, SOUTH AFRICA",84.0,6.96571795041747,17897,98.63859339690238
99999922524,,,,,6.97857323834063,17896,98.63308162927851
86823099999,-20.55,-43.75,"OURO BRANCO, BRAZIL",1062.5,6.97991985207751,17895,98.62756986165464
94580099999,-27.9333333,153.4333333,"GOLD COAST SEAWAY, AUSTRALIA",3.0,6.98767684149503,17894,98.62205809403075
67861099999,-18.2166667,28.9333333,"GOKWE, ZIMBABWE",1282.0,6.99913959515701,17893,98.61654632640689
68939099999,-34.2166666,24.85,"CAPE ST FRANCIS, SOUTH AFRICA",7.0,7.00405590693076,17892,98.611034558783
60035099999,28.452717,-13.863761,"FUERTEVENTURA, SPAIN",25.29,7.02118628812924,17891,98.60552279115913
96781599999,-6.900625,107.576294,"HUSEIN SASTRANEGARA, INDONESIA",742.49,7.02669233146448,17890,98.60001102353525
99999903174,33.80338,-118.33961,"TORRANCE, CA US",29.6,7.03445882542246,17889,98.59449925591137
91596099999,-22.588856,167.455969,"ILE DES PINS, NEW CALEDONIA",96.01,7.03574154126351,17888,98.5889874882875
68288099999,-25.4333333,30.9833333,"NELSPRUIT, SOUTH AFRICA",674.0,7.04651079608542,17887,98.58347572066361
68927099999,-34.3666666,21.3833333,"STILBAAI, SOUTH AFRICA",103.0,7.05490234292002,17886,98.57796395303974
99999953141,,,,,7.05791415843386,17885,98.57245218541586
68585099999,-30.4,30.6666666,"PENNINGTON SOUTH, SOUTH AFRICA",98.0,7.06062447349828,17884,98.56694041779198
84542099999,-9.347444,-77.598392,"COMANDANTE FAP GERMAN ARIAS GRAZIANI, PERU",2749.9,7.06186330850778,17883,98.5614286501681
41114099999,18.297286,42.803536,"KING KHALED AB, SAUDI ARABIA",2065.93,7.06231596052214,17882,98.55591688254424
67983099999,-20.2,32.6166667,"CHIPINGE, ZIMBABWE",1132.0,7.06489059544621,17881,98.55040511492035
41112099999,18.240367,42.656625,"ABHA, SAUDI ARABIA",2090.31,7.08819779906888,17880,98.54489334729648
67137099999,-21.441558,47.111736,"FIANARANTSOA, MADAGASCAR",1114.95,7.09135505602538,17879,98.53938157967261
86846099999,-21.9166666,-46.3833333,"CALDAS, BRAZIL",1151.5,7.09573692185406,17878,98.53386981204872
84531099999,-9.149614,-78.52385,"TENIENTE JAIME A DE MONTREUIL MORALES, PERU",21.03,7.10572252883976,17877,98.52835804442485
41466099999,13.685964,44.139056,"GANED, YEMEN",1402.08,7.10618587401231,17876,98.52284627680096
68395099999,-26.9666666,31.3166666,"HLATHIKHULU, SWAZILAND",1190.0,7.109627495834,17875,98.51733450917709
68006599999,-24.0167,19.73333,"OOTMOED, NAMIBIA",1200.0,7.11007784748458,17874,98.51182274155322
94564099999,-25.9,153.0833333,"RAINBOW BEACH, AUSTRALIA",46.0,7.11092217362628,17873,98.50631097392933
60285099999,28.448194,-11.161347,"PLAGE BLANCHE, MOROCCO",199.03,7.1169127762294,17872,98.50079920630547
83588099999,-19.65,-43.8833333,"LAGOA SANTA AIRPORT, BRAZIL",852.0,7.12501712081939,17871,98.49528743868159
63962099999,-10.6833333,35.5833333,"SONGEA, TANZANIA",1067.0,7.13032327522708,17870,98.48977567105771
43111099999,17.9333333,73.6666666,"MAHABALESHWAR, INDIA",1382.0,7.13150472890264,17869,98.48426390343383
94372099999,-21.6666666,150.2666666,"MIDDLE PERCY ISLAND, AUSTRALIA",209.0,7.14865680245274,17868,98.47875213580996
10270099999,52.9,12.817,"NEURUPPIN, GERMANY",39.0,7.15812540637895,17867,98.47324036818608
94596099999,-28.8333333,153.55,"BALLINA AIRPORT AWS, AUSTRALIA",2.0,7.17237916360151,17866,98.4677286005622
76675399999,19.337072,-99.566008,"LICENCIADO ADOLFO LOPEZ MATEOS INTERNATIONAL, MEXICO",2580.43,7.17564081310908,17865,98.46221683293832
95293099999,-19.4166666,146.5333333,"WOOLSHED, AUSTRALIA",559.0,7.17949261488887,17864,98.45670506531444
56664099999,26.367,101.217,"LA SHI, CHINA",1210.0,7.20689097502424,17863,98.45119329769057
68263099999,-25.91098,28.21045,"PRETORIA IRENE, SOUTH AFRICA",1500.0,7.21068281461154,17862,98.4456815300667
16672099999,38.6,21.35,"AGRINION AIRPORT, GREECE",24.0,7.21191785188894,17861,98.44016976244282
66285099999,-11.768086,19.897672,"LUENA, ANGOLA",1328.92,7.22171166618572,17860,98.43465799481893
83672099999,-21.2,-50.4333333,"ARACATUBA, BRAZIL",397.0,7.23105017852021,17859,98.42914622719506
10291099999,53.033,14.0,"ANGERMUENDE, GERMANY",55.0,7.23433612917365,17858,98.42363445957119
86848099999,-21.5666666,-45.4,"VARGINHA, BRAZIL",926.5,7.24164052292268,17857,98.4181226919473
56748099999,25.1166666,99.1833333,"BAOSHAN, CHINA",1649.0,7.24240937835174,17856,98.41261092432343
41391099999,15.8333333,43.5833333,"HAJJAH, YEMEN",1760.0,7.24870131293991,17855,98.40709915669954
68111599999,-23.25,17.0666666,"REHOBETH, NAMIBIA",1385.0,7.25092816590735,17854,98.40158738907567
92068099999,-9.9666666,149.3833333,"AGAUN, PAPUA NEW GUINEA",1005.0,7.2510779326792,17853,98.3960756214518
83583099999,-19.851181,-43.950628,"PAMPULHA CARLOS DRUMMOND DE ANDRADE, BRAZIL",789.12,7.25177716101197,17852,98.39056385382793
95572099999,-26.65,152.9333333,"NAMBOUR DPI HILLSIDE, AUSTRALIA",33.0,7.25872221105703,17851,98.38505208620406
78764099999,9.957053,-84.139797,"TOBIAS BOLANOS INTERNATIONAL, COSTA RICA",993.95,7.26033908389163,17850,98.37954031858017
68372099999,-26.9333333,29.2333333,"STANDERTON, SOUTH AFRICA",1564.0,7.26072545677716,17849,98.3740285509563
60018099999,28.3183333,-16.3822222,"TENERIFE GUIMAR, SPAIN",105.0,7.26668943802395,17848,98.36851678333241
84472099999,-7.139183,-78.4894,"GEN FAP ARMANDO REVOREDO IGLESIAS, PERU",2676.44,7.28164382849336,17847,98.36300501570854
68285099999,-25.6916667,30.0344444,"BELFAST, SOUTH AFRICA",1879.0,7.28352010869566,17846,98.35749324808467
86804099999,-19.9833333,-40.5833333,"SANTA TEREZA, BRAZIL",989.5,7.29122590081044,17845,98.35198148046078
94569099999,-26.6,153.1,"SUNSHINE COAST AIRPORT, AUSTRALIA",4.0,7.29537132275002,17844,98.3464697128369
80416099999,10.485033,-66.843517,"GENERALISIMO FRANCISCO DE MIRANDA AB, VENEZUELA",856.0,7.31131432595748,17843,98.34095794521302
63900399999,-3.5,33.0,"SHINYANGA, TANZANIA",1100.0,7.3123459476296,17842,98.33544617758915
83378099999,-15.862583,-47.912666,"PRESIDENTE JUSCELINO KUBITSCHEK, BRAZIL",1060.39,7.32580470325106,17841,98.32993440996528
84452099999,-6.787475,-79.828097,"CAPT JOSE A QUINONES GONZALES INTERNATIONAL, PERU",29.56,7.33301969347251,17840,98.3244226423414
68006999999,-18.1166666,21.6166666,"BAGANI, NAMIBIA",1010.99,7.33323608464774,17839,98.31891087471753
86890599999,-22.1,-39.9166666,"ALBACORA P25 OIL PLATFORM, BRAZIL",10.06,7.33380804664128,17838,98.31339910709364
72297599999,33.783,-118.05,"LOS ALAMITOS ARMY AIR FIELD, CA US",11.0,7.337568228622,17837,98.30788733946977
86888099999,-22.4488889,-42.9872222,"TERESOPOLIS, BRAZIL",981.5,7.34280348182722,17836,98.30237557184589
86818099999,-20.5833333,-47.3833333,"FRANCA, BRAZIL",1027.5,7.36101751835226,17835,98.29686380422201
68174099999,-23.8666666,29.45,"POLOKWANE, SOUTH AFRICA",1224.0,7.36262033991013,17834,98.29135203659814
68677099999,-31.95,29.1333333,"COFFEE BAY, SOUTH AFRICA",161.0,7.37146461885451,17833,98.28584026897425
69694499999,,,,,7.37330401318399,17832,98.28032850135038
10267099999,52.933,12.417,"KYRITZ AUT, GERMANY",40.0,7.37752073374728,17831,98.27481673372651
84752099999,-16.341072,-71.583083,"RODRIGUEZ BALLON, PERU",2561.84,7.38574101773892,17830,98.26930496610264
98433099999,14.5833333,121.3666666,"TANAY, PHILIPPINES",651.0,7.39380903149886,17829,98.26379319847875
67561099999,-12.9833333,28.65,"NDOLA SIMON MWANSA KAWEPEWE INTERNATIONAL, ZAMBIA",1270.1,7.41242491501123,17828,98.25828143085488
68403099999,-28.575001,16.533333,"ALEXANDER BAY, SOUTH AFRICA",29.87,7.41738798662219,17827,98.25276966323099
85406099999,-18.348514,-70.33875,"CHACALLUTA, CHILE",50.9,7.41999792408314,17826,98.24725789560712
10496099999,51.783,14.317,"COTTBUS, GERMANY",69.0,7.4272134995664,17825,98.24174612798325
10289099999,53.317,13.933,"GRUENOW AUT, GERMANY",57.0,7.42953851071913,17824,98.23623436035936
16654099999,39.1666666,21.0,"ARTA HALKIADES, GREECE",11.0,7.43036730787724,17823,98.23072259273549
16523099999,40.5666666,8.1666666,"CAPO CACCIA, ITALY",204.0,7.43075450763683,17822,98.2252108251116
46765099999,23.883,120.85,"JOYUTANG, TAIWAN",1015.0,7.43744888560041,17821,98.21969905748774
84143099999,-1.0166666,-78.5833333,"RUMIPAMBA, ECUADOR",2628.0,7.44861877677047,17820,98.21418728986386
67871099999,-19.0333333,30.8833333,"CHIVHU, ZIMBABWE",1459.0,7.45392788104451,17819,98.20867552223999
68449099999,-28.8166666,27.9,"FICKSBURG, SOUTH AFRICA",1614.0,7.45636139256434,17818,98.20316375461611
68267799999,-23.8666667,29.4333333,"PIETERSBURG, SOUTH AFRICA",1222.0,7.45802615890184,17817,98.19765198699223
68931099999,-34.090279,23.327778,"PLETTENBERG BAY, SOUTH AFRICA",141.73,7.45808413800295,17816,98.19214021936835
10982099999,47.883,12.533,"CHIEMING AUT, GERMANY",549.0,7.45951946285841,17815,98.18662845174447
68267299999,-26.348257,27.778303,"JOHANNESBURG BARAGWANATH, SOUTH AFRICA",1626.0,7.45991251360929,17814,98.1811166841206
68928099999,-34.1833333,22.15,"MOSSEL BAY LGT H, SOUTH AFRICA",59.0,7.46274180549495,17813,98.17560491649672
68267099999,-26.5,29.9833333,"ERMELO, SOUTH AFRICA",1766.0,7.47286185922551,17812,98.17009314887284
76525599999,22.897112,-102.68689,"GENERAL LEOBARDO C RUIZ INTERNATIONAL, MEXICO",2176.57,7.47591491818282,17811,98.16458138124898
84628099999,-12.021889,-77.114319,"JORGE CHAVEZ INTERNATIONAL, PERU",34.44,7.47795370758248,17810,98.15906961362509
68579099999,-30.75,30.2666666,"PADDOCK, SOUTH AFRICA",515.0,7.48101416430976,17809,98.15355784600122
10963099999,47.483,11.067,"GARMISCH USA HP, GERMANY",719.0,7.48153333498665,17808,98.14804607837733
68375099999,-27.4333333,29.1666666,"VREDE, SOUTH AFRICA",1671.0,7.48951981259937,17807,98.14253431075346
68290499999,-25.383189,31.105603,"KRUGER MPUMALANGA INTERNATIONAL, SOUTH AFRICA",862.27,7.49476270421557,17806,98.13702254312958
86737099999,-16.7833333,-47.6166666,"CRISTALINA, BRAZIL",1203.5,7.50077648268327,17805,98.1315107755057
10359099999,52.517,11.4,"GARDELEGEN AUT, GERMANY",48.0,7.50161071050775,17804,98.12599900788183
68353099999,-26.5666666,27.95,"VEREENIGING, SOUTH AFRICA",1481.0,7.50405938428622,17803,98.12048724025794
68513099999,-30.2,17.2833333,"KOINGNAAS, SOUTH AFRICA",99.0,7.50583458746801,17802,98.11497547263407
60617099999,27.3166666,3.7166666,"TAMESGUIDA, ALGERIA",354.0,7.52365357662515,17801,98.10946370501019
95565099999,-25.3166666,152.8833333,"HERVEY BAY AIRPORT, AUSTRALIA",15.0,7.52673765067586,17800,98.10395193738633
94384099999,-24.15,151.8833333,"SEVENTEEN SEVENTY, AUSTRALIA",47.0,7.53219486811017,17799,98.09844016976244
10396099999,52.55,14.55,"MANSCHNOW, GERMANY",16.0,7.53220394281129,17798,98.09292840213857
68935099999,-34.05,23.0833333,"KNYSNA, SOUTH AFRICA",54.0,7.53568873552654,17797,98.0874166345147
48935099999,19.4666666,103.1333333,"PLAINE DES JARRES XIENGKHOUANG, LAOS",1050.0,7.53678254436097,17796,98.08190486689081
91954099999,-23.365353,-149.524072,"TUBUAI, FRENCH POLYNESIA",2.13,7.54084655685832,17795,98.07639309926694
94576099999,-27.4833333,153.0333333,"BRISBANE, AUSTRALIA",8.0,7.54252017426868,17794,98.07088133164305
95566099999,-26.95,152.9666666,"BEERBURRUM FOREST STATION, AUSTRALIA",36.0,7.54486108152978,17793,98.06536956401918
94599099999,-28.6333333,153.6333333,"CAPE BYRON AWS, AUSTRALIA",98.0,7.55298236038641,17792,98.0598577963953
76612099999,20.6666666,-103.3833333,"GUADALAJARA JAL., MEXICO",1551.0,7.55776387626479,17791,98.05434602877142
10381099999,52.467,13.3,"BERLIN DAHLEM, GERMANY",51.0,7.55802556514798,17790,98.04883426114756
86674099999,-13.5333333,-40.1166666,"ITIRUCU, BRAZIL",757.11,7.56067577439671,17789,98.04332249352368
68363099999,-26.2,28.45,"SPRINGS, SOUTH AFRICA",1588.0,7.5621157665344,17788,98.0378107258998
94786099999,-31.4333333,152.85,"PORT MACQUARIE AIRPORT AWS, AUSTRALIA",5.0,7.56480388661223,17787,98.03229895827592
10277099999,53.15,13.033,"NEUGLOBSOW, GERMANY",62.0,7.5716861165039,17786,98.02678719065204
68362099999,-27.2666666,28.5,"FRANKFORT, SOUTH AFRICA",1503.0,7.57384912461307,17785,98.02127542302816
10261099999,52.9,11.733,"SEEHAUSEN ALTMARK, GERMANY",23.0,7.57650177125289,17784,98.01576365540429
10365099999,52.383,12.167,"GENTHIN AUT, GERMANY",39.0,7.57729218956035,17783,98.01025188778041
94790099999,-30.9166666,153.0833333,"SMOKY CAPE LIGHTHOUSE, AUSTRALIA",120.0,7.58100286343281,17782,98.00474012015653
60001099999,27.814847,-17.887056,"HIERRO, SPAIN",31.39,7.58672641881345,17781,97.99922835253265
67865099999,-18.9333333,29.8333333,"KWEKWE, ZIMBABWE",1213.0,7.59343866791644,17780,97.99371658490878
68341099999,-26.175672,26.184575,"LICHTENBURG, SOUTH AFRICA",1485.9,7.61819397720613,17779,97.98820481728491
68261099999,-25.8166666,28.25,"BOLEPI HOUSE, SOUTH AFRICA",1517.0,7.62459416844572,17778,97.98269304966102
60060099999,29.368983,-10.180267,"SIDI IFNI, MOROCCO",59.0,7.62508927623953,17777,97.97718128203715
91591599999,-22.258278,166.472806,"MAGENTA, NEW CALEDONIA",3.04,7.63971005906092,17776,97.97166951441328
67965099999,-20.021263,28.626538,"J M NKOMO INTERNATIONAL BULAWAYO, ZIMBABWE",1330.76,7.63981308358687,17775,97.96615774678939
10499099999,51.167,14.95,"GOERLITZ, GERMANY",238.0,7.64651072171103,17774,97.96064597916552
66136199999,-15.267,12.15,"NAMIBE, ANGOLA",66.0,7.64659570430605,17773,97.95513421154163
99999912803,,,,,7.649832931628,17772,97.94962244391776
68186399999,-23.822174,30.3273,"TZANEEN, SOUTH AFRICA",583.38,7.67198211582632,17771,97.94411067629389
68287099999,-24.9333333,30.85,"GRASKOP, SOUTH AFRICA",1436.0,7.67982616079041,17770,97.93859890867002
68999099999,-33.9666666,18.6,"CT AWS, SOUTH AFRICA",46.0,7.69196932069995,17769,97.93308714104614
86824099999,-20.7666666,-42.8666666,"VICOSA, BRAZIL",713.7,7.69787017643799,17768,97.92757537342226
86870099999,-22.8666666,-46.05,"MONTE VERDE, BRAZIL",661.5,7.69843175163209,17767,97.92206360579839
40973199999,32.233,62.967,"BACKWA, AFGHANISTAN",724.0,7.70911521654722,17766,97.9165518381745
68461099999,-28.248392,28.336125,"BETHLEHEM, SOUTH AFRICA",1694.99,7.71192729798074,17765,97.91104007055063
85508199999,-30.579999,-71.186666,"OVALLE ESCUELA AGRICOLA, CAROLINE ISLANDS",310.0,7.71302062321905,17764,97.90552830292675
86796099999,-19.6,-46.9333333,"ARAXA, BRAZIL",1021.5,7.71541292766663,17763,97.90001653530287
83692099999,-21.7915,-43.386778,"FRANCISCO DE ASSIS, BRAZIL",911.04,7.71760090402635,17762,97.894504767679
68112099999,-22.479894,17.47095,"HOSEA KUTAKO INTERNATIONAL, NAMIBIA",1719.07,7.73030192158728,17761,97.88899300005511
94785099999,-31.0666666,152.7666666,"KEMPSEY AIRPORT AWS, AUSTRALIA",14.0,7.73499531045135,17760,97.88348123243124
67551099999,-12.1666667,26.3666667,"SOLWEZI, ZAMBIA",1386.0,7.73593742466,17759,97.87796946480736
99999903178,,,,,7.74272123612462,17758,97.87245769718349
68262099999,-25.89007,28.17077,"PRETORIA MET, SOUTH AFRICA",1322.0,7.74904424651751,17757,97.8669459295596
91170099999,21.483,-158.033,"WAHIAWA WHEELER SC, HI US",255.0,7.74910354452335,17756,97.86143416193573
10393099999,52.217,14.117,"LINDENBERG, GERMANY",112.0,7.7629695101017,17755,97.85592239431186
86820099999,-20.45,-45.45,"FORMIGA, BRAZIL",879.5,7.76368653141448,17754,97.85041062668797
68474099999,-28.6833333,28.95,"ROYAL NATAL NAT. PARK, SOUTH AFRICA",1392.0,7.76488694314517,17753,97.8448988590641
81797099999,-4.2666666,-38.9333333,"GUARAMIRANGA, BRAZIL",871.5,7.76600040459666,17752,97.83938709144022
86757099999,-17.5666666,-47.2,"GUARDA MOR, BRAZIL",1001.5,7.76956766008523,17751,97.83387532381634
68811099999,-33.2,18.1166666,"GEELBEK, SOUTH AFRICA",7.0,7.774747419203,17750,97.82836355619247
84176099999,-1.653433,-78.656142,"CHIMBORAZO, ECUADOR",2789.22,7.78167692377188,17749,97.8228517885686
86697099999,-14.8833333,-40.8,"VITORIA DA CONQUISTA, BRAZIL",874.0,7.78837733989685,17748,97.81734002094473
10361099999,52.117,11.583,"MAGDEBURG, GERMANY",85.0,7.79487320498368,17747,97.81182825332084
72065299999,38.35,-119.5166666,"USMC MOUNTAIN WARFARE TRAINING CENTER, CA US",2067.15,7.79497787412702,17746,97.80631648569697
68845099999,-33.8333333,26.2833333,"BIRD ISLAND, SOUTH AFRICA",3.0,7.79633429852939,17745,97.80080471807308
94592099999,-28.164444,153.504722,"GOLD COAST, AUSTRALIA",6.4,7.79740587569879,17744,97.79529295044921
56739099999,24.9833333,98.5,"TENGCHONG, CHINA",1696.9,7.79780999051878,17743,97.78978118282534
68380099999,-26.0666667,30.1166667,"CAROLINA, SOUTH AFRICA",1700.0,7.80449234510143,17742,97.78426941520145
10480099999,51.3,13.1,"OSCHATZ, GERMANY",152.0,7.82165264418899,17741,97.77875764757758
86851099999,-21.7666666,-43.3666666,"JUIZ DE FORA, BRAZIL",951.5,7.83292288541477,17740,97.77324587995369
41518099999,35.6666666,74.6333333,"BUNJI, PAKISTAN",1470.0,7.83458070815241,17739,97.76773411232983
68485099999,-29.2166666,30.0,"MOOI RIVER, SOUTH AFRICA",1393.0,7.836770603587,17738,97.76222234470595
99999903166,,,,,7.83708695707245,17737,97.75671057708207
68368599999,-30.85,30.333,"MARGATE, SOUTH AFRICA",155.0,7.84064029752315,17736,97.7511988094582
10379099999,52.383,13.067,"POTSDAM, GERMANY",100.0,7.84562944896046,17735,97.74568704183432
94595099999,-28.6333333,153.6333333,"CAPE BYRON LIGHTHOUSE, AUSTRALIA",98.0,7.86502681445624,17734,97.74017527421044
68184099999,-25.1,30.467,"LYDENBURG, SOUTH AFRICA",1425.0,7.8730020457588,17733,97.73466350658656
72290499999,32.567,-116.967,"BROWN FIELD MUNICIPAL, CA US",160.0,7.88685611502043,17732,97.72915173896268
56977099999,22.6166666,101.8166666,"JIANGCHENG, CHINA",1121.0,7.89371458033739,17731,97.7236399713388
48921099999,21.6333333,101.8833333,"BOUNNEUA, LAOS",923.0,7.90252355964256,17730,97.71812820371493
94575099999,-27.570278,153.008056,"BRISBANE ARCHERFIELD, AUSTRALIA",19.2,7.91038520087172,17729,97.71261643609105
94579099999,-27.383,153.117,"BRISBANE ARPT02 AWS, AUSTRALIA",4.0,7.91062218873295,17728,97.70710466846718
67665099999,-15.3333333,28.45,"LUSAKA INTERNATIONAL, ZAMBIA",1151.83,7.91399629486504,17727,97.70159290084331
67869099999,-18.3166666,29.8833333,"KADOMA, ZIMBABWE",1157.0,7.91495424301597,17726,97.69608113321942
68297499999,-25.832294,29.192019,"WITBANK, SOUTH AFRICA",1547.77,7.92120255396823,17725,97.69056936559555
72293499999,33.217,-117.35,"OCEANSIDE MUNICIPAL, CA US",9.0,7.92342960604769,17724,97.68505759797166
68109099999,-23.8666666,18.0,"BITTERWASSER, NAMIBIA",1274.0,7.9331073122874,17723,97.67954583034779
68289099999,-25.499504,30.9141,"NELSPRUIT, SOUTH AFRICA",883.0,7.93550118054439,17722,97.67403406272392
94584099999,-25.9333333,153.1833333,"DOUBLE ISLAND POINT LIGHTHOUSE, AUSTRALIA",95.0,7.94786035246235,17721,97.66852229510003
10280099999,53.55,13.2,"NEUBRANDENBURG, GERMANY",80.0,7.94826884072413,17720,97.66301052747616
10591099999,50.933,14.217,"LICHTENHAIN MITTELD, GERMANY",300.0,7.94955587552104,17719,97.65749875985227
66422099999,-15.2,12.15,"MOCAMEDES, ANGOLA",43.0,7.95767515731655,17718,97.65198699222842
94286099999,-17.067,145.417,"MAREEBA AIRPORT, AUSTRALIA",476.0,7.96831478600128,17717,97.64647522460453
72295603167,33.92353,-118.33291,"HAWTHORNE MUNICIPAL AIRPORT, CA US",16.6,7.97428644404264,17716,97.64096345698066
94390099999,-24.7166666,153.2,"SANDY CAPE LIGHTHOUSE, AUSTRALIA",101.0,7.97499499662414,17715,97.63545168935678
86872099999,-22.75,-45.6,"CAMPOS DO JORDAO, BRAZIL",1581.5,7.97756665799667,17714,97.6299399217329
10474099999,51.883,12.65,"WITTENBERG, GERMANY",106.0,7.97851746289444,17713,97.62442815410903
68002399999,-20.3666666,14.9666666,"KHORIXAS, NAMIBIA",1026.0,7.97877136038027,17712,97.61891638648514
68298099999,-25.9833333,31.9833333,"LOMAHASHA, SWAZILAND",570.0,7.98877168068044,17711,97.61340461886127
68111099999,-20.07,16.13,"OUTJO, NAMIBIA",1324.0,7.99269907685276,17710,97.60789285123738
72297593106,33.783,-118.05,"LOS ALAMITOS ARMY AIR FIELD, CA US",11.0,7.99738186723833,17709,97.60238108361351
78717099999,14.7833333,-88.7833333,"SANTA ROSA DE COPAN, HONDURAS",1079.0,7.99758897995794,17708,97.59686931598964
72287493134,34.0236,-118.2911,"LOS ANGELES DOWNTOWN USC, CA US",54.6,8.00542834887746,17707,97.59135754836576
72297793184,33.67975,-117.86746,"SANTA ANA JOHN WAYNE AIRPORT, CA US",13.0,8.00725311877515,17706,97.58584578074189
72297799999,33.667,-117.867,"JOHN WAYNE AIRPORT ORA, CA US",17.0,8.01176026137618,17705,97.580334013118
10466099999,51.517,11.95,"HALLE KROELLWITZ, GERMANY",93.0,8.01213490823215,17704,97.57482224549413
95318099999,-24.3,116.917,"MOUNT AUGUSTUS, AUSTRALIA",337.0,8.01498070054907,17703,97.56931047787025
63682099999,0.45,33.1833333,"JINJA, UGANDA",1173.0,8.01715565302446,17702,97.56379871024637
68263599999,-25.938514,27.926133,"LANSERIA, SOUTH AFRICA",1376.78,8.01954950678061,17701,97.5582869426225
10264099999,53.317,11.933,"MARNITZ AUT, GERMANY",87.0,8.02924658391968,17700,97.55277517499862
94557099999,-26.6666666,152.4666666,"JIMNA FORESTRY, AUSTRALIA",517.0,8.03047632747167,17699,97.54726340737474
72295599999,33.803392,-118.339611,"ZAMPERINI FIELD, CA US",31.39,8.03726791568889,17698,97.54175163975087
68613099999,-32.0333333,18.3333333,"LAMBERTS BAY, SOUTH AFRICA",94.0,8.05135413532232,17697,97.536239872127
68549099999,-29.9,26.8666666,"WEPENER, SOUTH AFRICA",1420.0,8.0634911876272,17696,97.53072810450311
80211099999,4.452775,-75.766447,"EL EDEN, COLOMBIA",1216.15,8.0663501368988,17695,97.52521633687924
91598099999,-22.3333333,171.3333333,"MATTHEW ILOT, NEW CALEDONIA",27.0,8.06686474037547,17694,97.51970456925537
72293453121,33.21946,-117.34962,"OCEANSIDE MUNICIPAL AIRPORT, CA US",9.1,8.07515174352791,17693,97.51419280163148
67655099999,-15.0666666,27.1833333,"MUMBWA, ZAMBIA",1216.0,8.07705472138809,17692,97.50868103400761
68012099999,-19.261906,17.7325,"TSUMEB, NAMIBIA",1326.79,8.07918976344522,17691,97.50316926638372
60096099999,23.7,-15.8666667,"VILLA CISNEROS MIL, WESTERN SAHARA",10.0,8.08213245572712,17690,97.49765749875985
68593099999,-29.770606,31.058406,"VIRGINIA, SOUTH AFRICA",6.09,8.09532892525825,17689,97.49214573113598
68921099999,-34.8,20.0666666,"STRUISBAAI, SOUTH AFRICA",4.0,8.09647168230591,17688,97.4866339635121
94593099999,-27.4333333,153.55,"POINT LOOKOUT, AUSTRALIA",50.0,8.10117388224159,17687,97.48112219588822
48866099999,14.004522,108.017158,"PLEIKU, VIETNAM",741.88,8.10174736092959,17686,97.47561042826435
85364099999,-21.555736,-64.701325,"CAPITAN ORIEL LEA PLAZA, BOLIVIA",1854.4,8.10276343348747,17685,97.47009866064047
68589099999,-29.2666666,29.5166666,"GIANTS CASTLE, SOUTH AFRICA",1763.0,8.10603870861332,17684,97.46458689301659
68264399999,-25.653858,28.224231,"WONDERBOOM, SOUTH AFRICA",1248.15,8.10667388116679,17683,97.45907512539272
91592099999,-22.2666667,166.45,"NOUMEA, NEW CALEDONIA",72.0,8.10768516007727,17682,97.45356335776883
68839099999,-33.7,25.4333333,"UITENHAGE, SOUTH AFRICA",157.0,8.10946653596057,17681,97.44805159014496
72290023188,32.7336,-117.1831,"SAN DIEGO INTERNATIONAL AIRPORT, CA US",4.6,8.11109817401984,17680,97.44253982252108
68918099999,-34.4333333,19.2166666,"HERMANUS, SOUTH AFRICA",14.0,8.11909732402796,17679,97.4370280548972
81955099999,-8.9,-36.5,"GARANHUS, BRAZIL",823.5,8.11962678181877,17678,97.43151628727333
76726099999,18.835082,-99.262158,"GENERAL MARIANO MATAMOROS, MEXICO",1303.62,8.12281569031545,17677,97.42600451964945
85418099999,-20.535222,-70.181275,"DIEGO ARACENA INTERNATIONAL, CHILE",47.24,8.12374590420759,17676,97.42049275202558
84069099999,-0.248222,-79.214447,"SANTO DOMINGO LOS COLORADOS, ECUADOR",522.42,8.12683838270623,17675,97.4149809844017
60155099999,33.556981,-7.660492,"ANFA, MOROCCO",61.87,8.13061469964114,17674,97.40946921677782
95570099999,-29.75,153.0333333,"GRAFTON AIRPORT, AUSTRALIA",26.0,8.13191901420158,17673,97.40395744915395
42114099999,30.4,78.4833333,"TEHRI, INDIA",770.0,8.13223882034248,17672,97.39844568153006
99439099999,26.7,-79.0,"SETTLEMENT POINT GBI, UNITED STATES",1.5,8.13429729293955,17671,97.39293391390619
86779099999,-18.2,-45.4666666,"TRES MARIAS, BRAZIL",922.5,8.13485164024854,17670,97.3874221462823
68674099999,-31.606027,29.521721,"PORT ST JOHNS, SOUTH AFRICA",373.98,8.13668335402834,17669,97.38191037865843
68577099999,-30.5,29.4,"KOKSTAD, SOUTH AFRICA",1443.0,8.14043056973005,17668,97.37639861103456
72096299999,32.21425,-83.128028,"HEART OF GEORGIA REGIONAL, GA US",92.65,8.14808364535626,17667,97.37088684341069
76423099999,24.05,-104.6,"DURANGO DGO., MEXICO",1872.0,8.15098448559745,17666,97.36537507578682
68300099999,-26.6833333,15.25,"LUDERITZ DIAZ POINT, NAMIBIA",139.0,8.15950622023236,17665,97.35986330816293
94598099999,-29.1833333,153.4,"EVANS HEAD RAAF BOMBING RANGE, AUSTRALIA",63.0,8.16666430495843,17664,97.35435154053906
83775399999,-23.433,-46.467,"GUARULHOS, BRAZIL",768.0,8.1667816160655,17663,97.34883977291517
68347099999,-26.871064,26.718003,"P C PELSER, SOUTH AFRICA",1354.53,8.16778495615507,17662,97.3433280052913
72292603154,33.30424,-117.35508,"CAMP PENDLETON MCAS, CA US",21.4,8.1789418193352,17661,97.33781623766743
72295699999,33.917,-118.333,"JACK NORTHROP FIELD H, CA US",20.0,8.17913860857106,17660,97.33230447004354
10444099999,51.55,9.95,"GOETTINGEN, GERMANY",176.0,8.18922839783614,17659,97.32679270241967
86845099999,-21.9833333,-47.8833333,"SAO CARLOS, BRAZIL",864.5,8.19078788028183,17658,97.32128093479578
83779099999,-23.509119,-46.637753,"MARTE, BRAZIL",721.76,8.1961825988516,17657,97.31576916717192
83672499999,-19.90925,-43.99075,"CARLOS PRATES, BRAZIL",927.81,8.19667350698568,17656,97.31025739954804
60252099999,30.324997,-9.413067,"AL MASSIRA, MOROCCO",76.2,8.21269081556838,17655,97.30474563192416
72297699999,33.867,-117.983,"FULLERTON MUNICIPAL, CA US",29.0,8.21928804575055,17654,97.29923386430028
94578099999,-27.37939,153.12026,"BRISBANE AIRPORT, AUSTRIA",5.0,8.22085191169314,17653,97.2937220966764
67877099999,-18.1833333,31.4666666,"GRASSLANDS, ZIMBABWE",1632.0,8.22987944036024,17652,97.28821032905253
10454099999,51.85,10.767,"WERNIGERODE AUT, GERMANY",240.0,8.23789623868357,17651,97.28269856142865
68110099999,-22.5666667,17.1,"WINDHOEK EROS SAAF, NAMIBIA",1725.0,8.23805510712987,17650,97.27718679380477
67229099999,-14.704617,34.352369,"ULONGWE, MOZAMBIQUE",1299.97,8.25383378921083,17649,97.27167502618089
68813099999,-33.8,18.3666666,"ROBBEN ISLAND, SOUTH AFRICA",3.0,8.25387374321939,17648,97.26616325855701
84686099999,-13.535722,-71.938781,"TENIENTE ALEJANDRO VELASCO ASTETE INTERNATIONAL, PERU",3310.12,8.26148088776712,17647,97.26065149093314
68342099999,-26.8166666,26.0166666,"OTTOSDAL, SOUTH AFRICA",1500.0,8.27091605315889,17646,97.25513972330927
86800099999,-19.8833333,-43.9666666,"BELO HORIZONTE PAMPULHA, BRAZIL",870.5,8.28200117264617,17645,97.2496279556854
68355099999,-27.6663889,27.3136111,"KROONSTAD, SOUTH AFRICA",1434.0,8.28319757875469,17644,97.24411618806151
68443099999,-29.1166666,26.1833333,"BLOEMFONTEIN CITY, SOUTH AFRICA",1406.0,8.29471690198283,17643,97.23860442043764
10177099999,53.767,12.617,"TETEROW, GERMANY",50.0,8.30215614701567,17642,97.23309265281375
10490099999,51.65,13.583,"DOBERLUG KIRCHHAIN, GERMANY",100.0,8.30617908119902,17641,97.22758088518988
85283099999,-19.007083,-65.288747,"JUANA AZURDUY DE PADILLA, BOLIVIA",2903.82,8.30936519988189,17640,97.22206911756601
76151099999,29.17,-118.32,"ISLA GUADALUPE, MEXICO",23.0,8.31621426482113,17639,97.21655734994212
94388099999,-24.1166666,152.7166666,"LADY ELLIOT ISLAND, AUSTRALIA",4.0,8.32105524536391,17638,97.21104558231825
91587099999,-21.481678,168.037508,"MARE, NEW CALEDONIA",42.97,8.32398447622569,17637,97.20553381469436
94527099999,-29.467,149.85,"MOREE, AUSTRALIA",212.0,8.33528507233853,17636,97.2000220470705
10460099999,51.383,11.3,"ARTERN, GERMANY",166.0,8.34071001190374,17635,97.19451027944662
87412599999,,,,,8.34472792133643,17634,97.18899851182275
10438099999,51.3,9.45,"KASSEL, GERMANY",158.0,8.3463004028415,17633,97.18348674419886
86758099999,-17.7833333,-46.1166666,"JOAO PINHEIRO, BRAZIL",871.5,8.35822383835842,17632,97.17797497657499
86782099999,-18.7833333,-42.95,"GUANHAES, BRAZIL",861.5,8.36327199480267,17631,97.17246320895111
10948099999,47.4,10.283,"OBERSTDORF, GERMANY",810.0,8.36546062165551,17630,97.16695144132723
56768099999,25.0166666,101.5166666,"CHUXIONG, CHINA",1820.0,8.36610247872052,17629,97.16143967370336
69614499999,,,,,8.36686748818339,17628,97.15592790607947
94572099999,-28.8333333,153.26,"LISMORE AIRPORT AWS, AUSTRALIA",9.8,8.36707475672822,17627,97.1504161384556
96505099999,3.7333333,115.6833333,"LONGBAWAN JUVAI, INDONESIA",550.0,8.36787926382485,17626,97.14490437083172
63766099999,-2.2833333,37.8333333,"MAKINDU, KENYA",1000.0,8.37207312873245,17625,97.13939260320785
72290399999,32.816,-117.14,"MONTGOMERY FIELD, CA US",130.0,8.37321761660381,17624,97.13388083558398
60270099999,29.6833333,-9.7333333,"TIZNIT, MOROCCO",261.0,8.37464535598535,17623,97.1283690679601
76390099999,25.3666666,-101.0166666,"SALTILLO COAH., MEXICO",1790.0,8.37597763209918,17622,97.12285730033622
91066099999,28.217,-177.367,"MIDWAY ISLAND, HI MQ",3.0,8.37775291899417,17621,97.11734553271233
94373099999,-23.1333333,150.75,"YEPPOON THE ESPLANADE, AUSTRALIA",6.0,8.37800218539138,17620,97.11183376508846
72295503174,33.80338,-118.33961,"TORRANCE, CA US",29.6,8.37850529072282,17619,97.10632199746459
80149099999,5.029839,-75.464992,"LA NUBIA, COLOMBIA",2094.28,8.3810282982397,17618,97.1008102298407
94777099999,-33.4,151.3333333,"GOSFORD NARARA RESEARCH STATION, AUSTRALIA",20.0,8.38532080024793,17617,97.09529846221683
87163099999,-26.25,-53.8166667,"BERNARDO DE IRIGOYE, ARGENTINA",815.0,8.38534116806953,17616,97.08978669459296
68006799999,-24.7666666,16.9833333,"MALTAHOHE, NAMIBIA",1365.5,8.39733799243908,17615,97.08427492696909
86912099999,-23.2333333,-45.4166666,"SAO LUIS DO PARAITINGA, BRAZIL",875.5,8.40052859018736,17614,97.0787631593452
86716099999,-15.6,-47.6333333,"AGUAS EMENDADAS, BRAZIL",1201.5,8.40169765549199,17613,97.07325139172133
83844099999,-25.5166666,-48.5166666,"PARANAGUA, BRAZIL",5.0,8.40699565489421,17612,97.06773962409744
86930099999,-25.0166666,-50.85,"IVAI, BRAZIL",809.5,8.40971210661007,17611,97.06222785647357
68583099999,-29.7,31.05,"MOUNT EDGECOMBE, SOUTH AFRICA",94.0,8.41265182292703,17610,97.0567160888497
99999903167,,,,,8.41399803872523,17609,97.05120432122581
56946099999,23.55,99.4,"GENGMA, CHINA",1104.0,8.41437513807385,17608,97.04569255360194
72290403178,32.57583,-116.99391,"SAN DIEGO BROWN FIELD, CA US",158.9,8.41600460922899,17607,97.04018078597805
41313099999,17.25,55.2333333,"JABAL NOOS, OMAN",706.0,8.41660595923119,17606,97.0346690183542
84200099999,-2.204994,-80.988878,"GENERAL ULPIANO PAEZ, ECUADOR",5.48,8.41785101970456,17605,97.02915725073031
85452099999,-26.293864,-80.096214,"ISLA SAN FELIX, CHILE",50.29,8.42020999261771,17604,97.02364548310643
86778099999,-19.0,-46.9833333,"PATROCINIO, BRAZIL",964.5,8.42526036116637,17603,97.01813371548256
60025099999,28.044475,-16.572489,"TENERIFE SUR, SPAIN",63.7,8.42545700753583,17602,97.01262194785868
82796099999,-7.2666667,-35.8833333,"CAMPINAGRANDE, BRAZIL",500.0,8.42636908965266,17601,97.0071101802348
94774099999,-32.9166666,151.7833333,"NEWCASTLE NOBBYS SIGNAL STATION, AUSTRALIA",33.0,8.43115136972051,17600,97.00159841261092
86849099999,-21.1,-44.25,"SAO JOAO DEL REI, BRAZIL",992.5,8.43188221079,17599,96.99608664498705
69016093114,33.7,-117.83333,"TUSTIN MCAF, CA US",17.1,8.437290248244,17598,96.99057487736317
68471099999,-28.3666666,29.3833333,"VAN REENEN, SOUTH AFRICA",1680.0,8.44023723979045,17597,96.98506310973929
95770099999,-33.2666666,151.5666666,"NORAH HEAD LIGHTHOUSE, AUSTRALIA",20.0,8.44490598227741,17596,96.97955134211541
95571099999,-29.6166666,152.9666666,"GRAFTON RESEARCH STATION, AUSTRALIA",26.0,8.44507147951159,17595,96.97403957449154
67975099999,-20.055333,30.859111,"MASVINGO INTERNATIONAL, ZIMBABWE",1095.75,8.4451232692951,17594,96.96852780686767
68572099999,-29.8,29.35,"SHALEBURN, SOUTH AFRICA",1614.0,8.44721905066104,17593,96.96301603924378
76373099999,25.35,-105.75,"TEPEHUANES DGO., MEXICO",1967.0,8.45510228551427,17592,96.95750427161991
83780099999,-23.626692,-46.655375,"CONGONHAS, BRAZIL",801.92,8.45525036239556,17591,96.95199250399604
95784099999,-31.8833333,152.5166666,"TAREE AIRPORT AWS, AUSTRALIA",9.0,8.46290537360992,17590,96.94648073637215
95748099999,-34.5666666,150.7833333,"WOLLONGONG AIRPORT, AUSTRALIA",8.0,8.46750799274616,17589,96.94096896874828
86735099999,-16.6833333,-48.6166666,"SILVANIA, BRAZIL",950.5,8.47015209899429,17588,96.9354572011244
72290303131,32.81453,-117.13747,"SAN DIEGO MONTGOMERY FIELD, CA US",127.5,8.47597961950724,17587,96.92994543350052
72293193107,32.86667,-117.13333,"SAN DIEGO MIRAMAR NAS, CA US",145.4,8.47785051779527,17586,96.92443366587665
68325099999,-25.45,25.4166666,"GOOD HOPE, BOTSWANA",1275.0,8.47797801004768,17585,96.91892189825278
94791099999,-30.3205556,153.1163889,"COFFS HARBOUR, AUSTRALIA",5.0,8.48561812282825,17584,96.91341013062889
84179099999,-1.5,-77.9,"PUYO, ECUADOR",960.0,8.4904633543207,17583,96.90789836300502
91964099999,-25.0666666,-130.1,"PITCAIRN ISLAND AWS, PITCAIRN ISLANDS",265.0,8.49068584840094,17582,96.90238659538115
76577099999,21.0,-101.2833333,"GUANAJUATO GTO., MEXICO",1999.0,8.49155011016585,17581,96.89687482775726
72290693112,32.69219,-117.20983,"NORTH ISLAND NAS, CA US",4.4,8.49873891532495,17580,96.89136306013339
10253099999,52.967,11.133,"LUCHOW REHBECK, GERMANY",17.0,8.50537737613746,17579,96.8858512925095
10946099999,47.717,10.333,"KEMPTEN DURACH, GERMANY",705.0,8.51112713287662,17578,96.88033952488563
68588099999,-29.970089,30.950519,"DURBAN INTERNATIONAL, SOUTH AFRICA",10.05,8.51761610345438,17577,96.87482775726176
78501011807,17.4,-83.933,"ISLAS DEL CISNE, HONDURAS",11.0,8.51820752344396,17576,96.86931598963787
69124499999,,,,,8.51950327622702,17575,96.86380422201401
68580099999,-29.5333333,30.2833333,"CEDARA, SOUTH AFRICA",1071.0,8.52348746942077,17574,96.85829245439012
84147099999,-1.212067,-78.574636,"CHACHOAN, ECUADOR",2591.4,8.52634061727757,17573,96.85278068676625
95600099999,-30.3,115.0333333,"JURIEN BAY, AUSTRALIA",5.0,8.54223418011115,17572,96.84726891914237
10569099999,50.483,12.133,"PLAUEN AUT, GERMANY",389.0,8.54879915187462,17571,96.8417571515185
64601099999,5.9666667,15.6333333,"BOUAR, CENTRAL AFRICAN REPUBLIC",1020.0,8.54995248950659,17570,96.83624538389462
91190522524,20.7895,-156.9485,"LANAI AIRPORT 656, HI US",396.2,8.55005703634637,17569,96.83073361627073
72288593197,34.02099,-118.44712,"SANTA MONICA MUNICIPAL AIRPORT, CA US",53.3,8.555181474368,17568,96.82522184864686
68392099999,-27.05,31.1,"NHLANGANO, SWAZILAND",1102.0,8.55667288825107,17567,96.81971008102298
68396099999,-26.529022,31.307519,"MATSAPHA, SWAZILAND",633.37,8.55738360808223,17566,96.8141983133991
72297553141,33.79,-118.05194,"LOS ALAMITOS ARMY AIR FIELD, CA US",10.7,8.55839766103963,17565,96.80868654577523
56985099999,23.45,103.3333333,"MENGZI, CHINA",1313.6,8.56131391470768,17564,96.80317477815136
8513099999,37.75,-25.6666666,"PONTA DELGADA OBS. ACORES, PORTUGAL",36.0,8.56590357973646,17563,96.79766301052749
72290423196,32.567,-116.967,"BROWN FIELD MUNICIPAL, CA US",160.0,8.58068256415341,17562,96.7921512429036
68819099999,-33.9333333,18.4166666,"MOLTENO RESERVIOR, SOUTH AFRICA",97.0,8.58443204491419,17561,96.78663947527973
10577099999,50.8,12.867,"CHEMNITZ, GERMANY",420.0,8.58683903983136,17560,96.78112770765584
95575099999,-27.9666666,152.9833333,"BEAUDESERT DRUMLEY ST, AUSTRALIA",48.0,8.58884538245141,17559,96.77561594003197
72295503122,33.8016,-118.3419,"TORRANCE AIRPORT, CA US",27.4,8.5894686332797,17558,96.77010417240808
94387099999,-24.9,152.3166666,"BUNDABERG AERO, AUSTRALIA",28.0,8.59021661585851,17557,96.76459240478421
68575099999,-30.15,30.0666666,"IXOPO, SOUTH AFRICA",937.0,8.59330539731488,17556,96.75908063716034
95606099999,-31.0166666,115.3166666,"LANCELIN, AUSTRALIA",5.0,8.60117311076573,17555,96.75356886953645
94573099999,-28.8833333,153.05,"CASINO AIRPORT AWS, AUSTRALIA",22.0,8.60238536660784,17554,96.7480571019126
67299199999,-20.4666666,32.7666666,"ESPUNGABERA, MOZAMBIQUE",824.0,8.60643965480942,17553,96.7425453342887
10168099999,53.6,12.1,"GOLDBERG AUT, GERMANY",58.0,8.6086713691282,17552,96.73703356666483
83829099999,-23.2166666,-45.8666666,"SAO JOSE DOS CAMPOS AERO, BRAZIL",646.0,8.6144647046548,17551,96.73152179904095
10875099999,48.283,12.5,"MUHLDORF, GERMANY",401.0,8.62208163140681,17550,96.72601003141708
10565099999,51.083,11.933,"OSTERFELD AUT, GERMANY",263.0,8.62456926092333,17549,96.7204982637932
10575099999,50.6,12.717,"AUE, GERMANY",397.0,8.62626583649123,17548,96.71498649616932
99999953121,,,,,8.62663188575912,17547,96.70947472854544
10838099999,48.383,9.95,"ULM MIL MET, GERMANY",522.0,8.62884045499259,17546,96.70396296092156
86821099999,-20.0333333,-44.0166666,"IBIRITE ROLA MOCA, BRAZIL",1209.5,8.63326711777527,17545,96.69845119329769
67693099999,-15.679053,34.974014,"CHILEKA INTERNATIONAL, MALAWI",778.76,8.63482451303453,17544,96.69293942567381
72297023129,33.81177,-118.14718,"LONG BEACH DAUGHERTY AIRPORT, CA US",10.2,8.63821590270559,17543,96.68742765804994
72288599999,34.017,-118.45,"SANTA MONICA MUNICIPAL, CA US",53.0,8.63938576917706,17542,96.68191589042607
68938099999,-34.2,24.8333333,"CAPE ST. FRANCIS, SOUTH AFRICA",7.0,8.64304014177897,17541,96.67640412280218
83925099999,-28.6,-48.8166666,"SANTA MARTA, BRAZIL",45.0,8.6450282919064,17540,96.67089235517831
10567099999,50.883,12.133,"GERA LEUMNITZ, GERMANY",312.0,8.65430992417622,17539,96.66538058755442
76001399999,32.541064,-116.970158,"GENERAL ABELARDO L RODRIGUEZ INTERNATIONAL, MEXICO",149.04,8.65490732043001,17538,96.65986881993055
67899099999,-18.6166666,31.5666666,"WEDZA, ZIMBABWE",1380.0,8.66096468324246,17537,96.65435705230666
76656099999,19.7166666,-103.4666666,"CIUDAD GUZMAN JAL., MEXICO",1515.0,8.6639656807195,17536,96.64884528468279
68478099999,-29.0,29.8833333,"ESTCOURT, SOUTH AFRICA",1144.0,8.66456084721356,17535,96.64333351705892
99999903131,,,,,8.66470332608619,17534,96.63782174943505
10249099999,53.4,10.683,"BOIZENBURG AUT, GERMANY",46.0,8.66713881895584,17533,96.63230998181118
60185099999,32.2833333,-9.2333333,"SAFI, MOROCCO",45.0,8.66941363166521,17532,96.62679821418729
78637299999,14.57,-89.35,"ESQUIPULAS, GUATEMALA",965.0,8.67757637646508,17531,96.62128644656342
86795099999,-19.8833333,-47.4333333,"SACRAMENTO, BRAZIL",913.5,8.67998214466977,17530,96.61577467893953
68920099999,-34.8333333,20.0166666,"CAPE AGULHAS, SOUTH AFRICA",14.0,8.68138698815194,17529,96.61026291131566
86721099999,-15.7166666,-42.4333333,"RIO PARDO DE MINAS, BRAZIL",854.5,8.68184748737891,17528,96.60475114369179
94401099999,-27.7166666,114.1666666,"KALBARRI, AUSTRALIA",7.0,8.68496566451947,17527,96.5992393760679
59567099999,22.0333333,121.55,"LAN YU, CHINA",325.0,8.69339536936928,17526,96.59372760844403
68345099999,-28.0,26.6666666,"WELKOM, SOUTH AFRICA",1342.0,8.69346379564164,17525,96.58821584082014
56954099999,22.5666666,99.9333333,"LANCANG, CHINA",1054.0,8.6949159118984,17524,96.58270407319628
95618099999,-33.3,117.3333333,"WAGIN, AUSTRALIA",256.0,8.70162166387558,17523,96.5771923055724
78720099999,14.060883,-87.217197,"TONCONTIN INTERNATIONAL, HONDURAS",1004.01,8.7065085880168,17522,96.57168053794852
76573099999,21.35,-101.9166666,"LAGOS DE MORENO JAL., MEXICO",1942.0,8.70835861650322,17521,96.56616877032465
95767099999,-33.0833333,151.4666666,"LAKE MACQUARIE AWS, AUSTRALIA",6.0,8.71935839732162,17520,96.56065700270076
91583099999,-20.9333333,165.3166666,"POINDIMIE NLLE CALEDONIE, NEW CALEDONIA",13.0,8.71991316234174,17519,96.55514523507689
86941099999,-26.4,-51.35,"GEN CARNEIRO, BRAZIL",1019.5,8.72113471842912,17518,96.549633467453
93191099999,-37.9166666,176.9166666,"WHAKATANE AWS, NEW ZEALAND",7.0,8.72378359322403,17517,96.54412169982913
10648099999,49.717,9.1,"MICHELSTADT VIELBRU, GERMANY",405.0,8.72473663484851,17516,96.53860993220526
10688099999,49.667,12.183,"WEIDEN MIL MET, GERMANY",438.0,8.72929317465036,17515,96.53309816458138
10501099999,50.783,6.1,"AACHEN, GERMANY",202.0,8.73100493280153,17514,96.5275863969575
44462099999,27.3,86.5,"OKHALDHUNGA, NEPAL",1720.0,8.73419782946949,17513,96.52207462933363
68592099999,-29.6166666,31.1333333,"KING SHAKA INTERNATIONAL AIRPORT, SOUTH AFRICA",127.0,8.73503175279031,17512,96.51656286170976
64870099999,7.357011,13.559242,"NGAOUNDERE, CAMEROON",1114.04,8.73587627219982,17511,96.51105109408587
68269099999,-25.7666666,28.2,"PRETORIA UNISA, SOUTH AFRICA",1439.0,8.73807419956761,17510,96.505539326462
68835099999,-33.7666666,24.8166666,"PATENSIE, SOUTH AFRICA",85.0,8.73996309616761,17509,96.50002755883811
83905099999,-26.2166666,-48.7833333,"JOINVILLE, BRAZIL",4.0,8.74747982943388,17508,96.49451579121424
63733099999,-1.5,33.8,"MUSOMA, TANZANIA",1147.0,8.74904214831181,17507,96.48900402359037
94749099999,-34.3833333,150.9333333,"BELLAMBI AWS, AUSTRALIA",10.0,8.75103069075709,17506,96.48349225596648
68476099999,-28.581667,29.749722,"LADYSMITH, SOUTH AFRICA",1081.43,8.75273193980033,17505,96.47798048834261
83840099999,-25.528475,-49.175775,"AFONSO PENA, BRAZIL",910.74,8.75463268189785,17504,96.47246872071872
63756099999,-2.444486,32.932667,"MWANZA, TANZANIA",1146.96,8.76365006820261,17503,96.46695695309486
68754099999,-32.5166666,27.4666666,"DOHNE, SOUTH AFRICA",900.0,8.76701743790369,17502,96.46144518547098
67571099999,-13.2333333,30.2166667,"SERENJE, ZAMBIA",1384.0,8.76933090986038,17501,96.4559334178471
68378499999,-27.7833333,30.8,"VRYHEID, SOUTH AFRICA",1158.0,8.77759512488296,17500,96.45042165022323
10389099999,52.517,13.417,"BERLIN ALEXANDERPLZ, GERMANY",84.0,8.77774446153168,17499,96.44490988259935
69703499999,,,,,8.77952814111382,17498,96.43939811497548
63602099999,3.05,30.9166667,"ARUA, UGANDA",1211.0,8.78599280612911,17497,96.43388634735159
10235099999,53.0,9.833,"SOLTAU, GERMANY",77.0,8.78742720544835,17496,96.42837457972772
68752099999,-32.89715,27.279111,"BHISHO, SOUTH AFRICA",594.36,8.79648086965617,17495,96.42286281210384
83631099999,-20.9166666,-47.1166666,"S SEBASTIAO DO OARAISO, BRAZIL",820.0,8.80308573496329,17494,96.41735104447996
10046099999,54.3833333,10.15,"KIEL HOLTENAU GNVY, GERMANY",31.0,8.8032170307866,17493,96.4118392768561
91164999999,21.983,-159.333,"LIHUE KAUAI ISL, HI US",31.0,8.80914783003466,17492,96.40632750923221
10865099999,48.133,11.55,"MUNICH, GERMANY",520.0,8.80952566001276,17491,96.40081574160834
72297603166,33.87154,-117.98561,"FULLERTON MUNICIPAL AIRPORT, CA US",26.3,8.8164115760189,17490,96.39530397398445
94381099999,-23.8666666,151.2166666,"GLADSTONE AIRPORT, AUSTRALIA",17.0,8.82618458136865,17489,96.38979220636058
94549099999,-26.5666666,151.8333333,"KINGAROY AIRPORT, AUSTRALIA",434.0,8.82664390419742,17488,96.38428043873671
67779099999,-16.7833333,31.5833333,"MOUNT DARWIN, ZIMBABWE",966.0,8.82864149328545,17487,96.37876867111282
81956099999,-8.2333333,-35.9833333,"CARUARU, BRAZIL",551.5,8.82967466541006,17486,96.37325690348895
8583099999,16.8333333,-25.05,"MINDELO, CAPE VERDE",20.0,8.83548540151048,17485,96.36774513586506
68546099999,-30.7166667,26.7166667,"ALIWAL NORTH, SOUTH AFRICA",1351.0,8.83770647122209,17484,96.36223336824119
63816099999,-4.0833333,37.7166667,"SAME, TANZANIA",872.0,8.84108487968382,17483,96.35672160061732
72295023174,33.93816,-118.3866,"LOS ANGELES INTERNATIONAL AIRPORT, CA US",29.7,8.84134864117829,17482,96.35120983299345
94766099999,-33.9,151.1166666,"CANTERBURY RACECOURSE, AUSTRALIA",3.0,8.84482474500494,17481,96.34569806536956
68385099999,-27.0166666,30.8,"PIET RETIEF, SOUTH AFRICA",1235.0,8.84845113589833,17480,96.34018629774569
63654099999,1.6833333,31.7166667,"MASINDI, UGANDA",1147.0,8.849108195622,17479,96.33467453012182
68378399999,-27.770586,29.976894,"NEWCASTLE, SOUTH AFRICA",1241.75,8.85022277504529,17478,96.32916276249793
10193099999,53.75,14.067,"UECKERMUENDE AUT, GERMANY",7.0,8.85643776994424,17477,96.32365099487406
10870099999,48.35,11.783,"MUNICH AIRPORT, GERMANY",448.0,8.85954719595263,17476,96.31813922725017
83842099999,-25.405078,-49.232036,"BACACHERI, BRAZIL",931.77,8.86045496865788,17475,96.3126274596263
94647099999,-31.6797,128.8792,"EUCLA, AUSTRALIA",102.3,8.8608463346541,17474,96.30711569200243
94558099999,-25.9666666,152.8666666,"TOOLARA KELLY, AUSTRALIA",80.0,8.86515751072462,17473,96.30160392437854
10532099999,50.583,8.7,"GIESSEN, GERMANY",186.0,8.86525934963954,17472,96.29609215675468
94644099999,-32.2,127.5333333,"RED ROCKS POINT, AUSTRALIA",3.0,8.87884744457532,17471,96.2905803891308
76773099999,17.788947,-97.771869,"HUAJUAPAN DE LEON OAX, MEXICO",1606.0,8.88608013443857,17470,96.28506862150692
40268099999,32.0333333,35.7333333,"SALT, JORDAN",915.0,8.88689971292522,17469,96.27955685388304
10435099999,51.5,9.183,"WARBURG AUT, GERMANY",225.0,8.88888192132706,17468,96.27404508625916
83576099999,-19.765,-47.964778,"UBERABA, BRAZIL",809.24,8.89934005204157,17467,96.26853331863529
94602099999,-32.0166666,115.5,"ROTTNEST ISLAND, AUSTRALIA",43.0,8.90782484362481,17466,96.2630215510114
10184099999,54.1,13.4,"GREIFSWALD, GERMANY",6.0,8.9127946653045,17465,96.25750978338753
91197721508,19.76,-155.55361,"BRADSHAW ARMY AIR FIELD, HI US",1798.3,8.91316869299082,17464,96.25199801576365
67853099999,-18.629872,27.021042,"HWANGE NATIONAL PARK, ZIMBABWE",1079.9,8.91643844721225,17463,96.24648624813977
95765099999,-33.8333333,151.0666666,"SYDNEY OLYMPIC PARK AWS ARCHERY CENTRE, AUSTRALIA",4.0,8.91800770864846,17462,96.2409744805159
69739499999,,,,,8.92400798158468,17461,96.23546271289203
68487099999,-29.0833333,30.6,"GREYTOWN, SOUTH AFRICA",1029.0,8.92523136284359,17460,96.22995094526814
10356099999,52.167,11.183,"UMMENDORF AUT, GERMANY",163.0,8.92574561374135,17459,96.22443917764427
83699399999,-22.333,-41.767,"MACAE, BRAZIL",3.0,8.92704912109034,17458,96.2189274100204
68849099999,-33.2833333,26.5,"GRAHAMSTOWN, SOUTH AFRICA",642.0,8.92793374508413,17457,96.21341564239651
82764199999,-6.117,-50.0,"CARAJAS, BRAZIL",637.0,8.92940869524196,17456,96.20790387477264
68267199999,-25.986267,28.140061,"GRAND CENTRAL, SOUTH AFRICA",1623.06,8.93032487949509,17455,96.20239210714875
86948099999,-26.9508333,-48.7619444,"ITAJAI, BRAZIL",19.5,8.93544095148079,17454,96.19688033952488
10645099999,49.9,9.433,"BREITSOL AUT, GERMANY",585.0,8.93629803090459,17453,96.19136857190101
10761099999,49.017,10.967,"WEISSENBURG, GERMANY",422.0,8.94672287495966,17452,96.18585680427714
42512099999,25.7,91.9833333,"SHILLONG ARPT UMROI AIRPORT, INDIA",891.24,8.95162680001942,17451,96.18034503665326
10542099999,50.867,9.717,"BAD HERSFELD AHP, GERMANY",212.0,8.95345033838643,17450,96.17483326902938
94567099999,-25.5166666,152.7166666,"MARYBOROUGH, AUSTRALIA",11.0,8.95669754032902,17449,96.1693215014055
95749099999,-34.65,150.85,"KIAMA BOMBO HEADLAND, AUSTRALIA",16.0,8.9659129658807,17448,96.16380973378162
10406099999,51.833,6.533,"BOCHOLT, GERMANY",25.0,8.96701086234678,17447,96.15829796615775
48971099999,12.45,107.1833333,"MONDOL KIRI, CAMBODIA",690.0,8.97074950199091,17446,96.15278619853387
10548099999,50.567,10.383,"MEININGEN, GERMANY",453.0,8.97423816930585,17445,96.14727443090999
68387099999,-27.7833333,30.8,"VRYHEID, SOUTH AFRICA",1163.0,8.97475798248873,17444,96.14176266328612
60177099999,32.95,-7.6166666,"SETTAT, MOROCCO",408.0,8.98050185790587,17443,96.13625089566223
68926099999,-34.0833333,21.25,"RIVERSDALE, SOUTH AFRICA",116.0,8.98158709379685,17442,96.13073912803837
94555099999,-28.2,152.1,"WARWICK, AUSTRALIA",476.0,8.98462212452391,17441,96.12522736041448
10850099999,48.783,10.7,"HARBURG AUT, GERMANY",457.0,8.98704904620634,17440,96.11971559279061
60033099999,27.151667,-13.219167,"HASSAN I, EH",63.09,8.99069890519941,17439,96.11420382516673
10704099999,49.283,6.683,"BERUS, GERMANY",363.0,8.99235858890445,17438,96.10869205754285
86873099999,-22.4,-44.9666666,"PASSA QUATRO, BRAZIL",1041.5,8.99760142487669,17437,96.10318028991898
76519099999,22.1,-103.2666666,"COLOTLAN JAL., MEXICO",1673.0,9.00068874045523,17436,96.0976685222951
66215099999,-9.525086,16.312406,"MALANJE, ANGOLA",1178.96,9.00635976488908,17435,96.09215675467122
86736099999,-16.2666666,-47.9666666,"LUZIANIA, BRAZIL",959.5,9.00925539667331,17434,96.08664498704734
67663099999,-14.45,28.4666667,"KABWE MILLIKEN, ZAMBIA",1207.0,9.00978472125283,17433,96.08113321942346
87047099999,-24.855978,-65.486169,"SALTA, ARGENTINA",1246.02,9.01239048215283,17432,96.07562145179959
68188099999,-23.7666666,30.0666666,"TZANEEN GRENSHOEK, SOUTH AFRICA",896.0,9.01669357320934,17431,96.07010968417572
68541099999,-29.7536111,25.3230556,"FAURESMITH, SOUTH AFRICA",1387.0,9.02246797522382,17430,96.06459791655185
69099499999,,,,,9.02319685214753,17429,96.05908614892796
10706099999,49.483,7.05,"THOLEY, GERMANY",398.0,9.02501241156853,17428,96.05357438130409
68911099999,-34.15,18.85,"STRAND, SOUTH AFRICA",10.0,9.03721422045183,17427,96.0480626136802
94765099999,-33.924444,150.988333,"SYDNEY BANKSTOWN, AUSTRALIA",8.83,9.03834549722959,17426,96.04255084605633
86777099999,-18.15,-47.9333333,"CATALAO, BRAZIL",891.5,9.03894192834813,17425,96.03703907843246
91285021504,19.71909,-155.04897,"HILO INTERNATIONAL AIRPORT 87, HI US",8.8,9.0397593692549,17424,96.03152731080857
10317099999,52.25,8.05,"OSNABRUCK ATTERHEID, GERMANY",95.0,9.04414510505592,17423,96.0260155431847
83809399999,-23.229172,-45.861508,"PROFESSOR URBANO ERNESTO STUMPF, BRAZIL",646.17,9.051060950957,17422,96.02050377556081
10162099999,53.633,11.417,"SCHWERIN, GERMANY",68.0,9.05355527318667,17421,96.01499200793695
94566099999,-26.1833333,152.6333333,"GYMPIE, AUSTRALIA",65.0,9.05484454387446,17420,96.00948024031307
72292703177,33.12993,-117.27651,"CARLSBAD MCCLELLAN PALOMAR AIRPORT, CA US",95.3,9.05565502303759,17419,96.0039684726892
86943099999,-26.8166666,-50.8333333,"CACADOR, BRAZIL",953.5,9.06291690420952,17418,95.99845670506532
68651099999,-31.3333333,27.85,"ELLIOT, SOUTH AFRICA",1463.0,9.06330972623128,17417,95.99294493744144
56751099999,25.7,100.1833333,"DALI, CHINA",1992.0,9.06647190170471,17416,95.98743316981756
95551099999,-27.55,151.9166666,"TOOWOOMBA AIRPORT, AUSTRALIA",642.0,9.06691516449179,17415,95.98192140219368
86904099999,-23.1,-48.95,"AVARE, BRAZIL",726.5,9.0741567088437,17414,95.9764096345698
61415099999,20.933067,-17.029956,"NOUADHIBOU, MAURITANIA",4.87,9.08501452509807,17413,95.97089786694593
95937099999,-35.9,150.15,"MORUYA AIRPORT, AUSTRALIA",4.0,9.08851742594172,17412,95.96538609932205
10410099999,51.4,6.9666667,"ESSEN MULHEIM, GERMANY",161.0,9.09018476062978,17411,95.95987433169817
69456499999,,,,,9.09722285127057,17410,95.9543625640743
67963099999,-20.3833333,28.5,"MATOPOS, ZIMBABWE",1350.0,9.10352250603684,17409,95.94885079645043
8594099999,16.741389,-22.949444,"AMILCAR CABRAL INTERNATIONAL, CAPE VERDE",53.94,9.10527761284345,17408,95.94333902882654
67475099999,-10.2166667,31.1333333,"KASAMA, ZAMBIA",1384.0,9.10835384404019,17407,95.93782726120267
68255099999,-25.65,27.2333333,"RUSTENBURG, SOUTH AFRICA",1151.0,9.11057640899034,17406,95.93231549357878
94370099999,-22.7333333,150.65,"SAMUEL HILL AERO, AUSTRALIA",32.0,9.11112091282105,17405,95.92680372595491
10430099999,51.783,8.833,"BAD LIPPSPRINGE, GERMANY",151.0,9.1151123059102,17404,95.92129195833104
10305099999,52.517,7.317,"LINGEN, GERMANY",21.0,9.12933414348264,17403,95.91578019070715
94770099999,-33.283,151.567,"NORAH HEAD LIGHTHOU, AUSTRALIA",24.0,9.13101628858254,17402,95.91026842308328
72392623136,34.21142,-119.08762,"CAMARILLO AIRPORT, CA US",21.6,9.13365173403382,17401,95.90475665545941
10836099999,48.667,9.867,"STOETTEN, GERMANY",734.0,9.13448156663184,17400,95.89924488783554
68454099999,-29.304053,27.503458,"MEJAMETALANA, LESOTHO",1556.0,9.13517344465235,17399,95.89373312021165
60135099999,34.051467,-6.751519,"SALE, MOROCCO",84.12,9.13771147389451,17398,95.88822135258778
40609099999,35.9166666,42.7166666,"TEL ABTA, IRAQ",200.0,9.14051930055512,17397,95.8827095849639
86776099999,-18.9166666,-48.25,"UBERLANDIA, BRAZIL",870.5,9.14144904583676,17396,95.87719781734002
10535099999,50.817,9.133,"WAHLEN AUT, GERMANY",320.0,9.14645273056669,17395,95.87168604971615
94782099999,-33.4333333,151.3666666,"GOSFORD AWS, AUSTRALIA",7.0,9.15164211604892,17394,95.86617428209226
68015299999,-17.5666666,17.2166666,"OKONGO, NAMIBIA",1152.0,9.15262126753184,17393,95.86066251446839
68370099999,-26.4666666,29.45,"BETHAL, SOUTH AFRICA",838.0,9.16004545618073,17392,95.85515074684452
99017999999,27.5,-90.46,"NORTH MID GULF 110NM SOUTH OF GRAND ISLE, UNITED STATES",0.0,9.16106665787029,17391,95.84963897922064
83825099999,-25.4833333,-48.3166666,"ILHA DO MEL, BRAZIL",4.0,9.16426653557755,17390,95.84412721159677
68833099999,-33.8333333,23.8666666,"JOUBERTINA, SOUTH AFRICA",546.0,9.16653629578875,17389,95.83861544397288
99635099999,30.0,-80.6,"ST. AUGUSTINE FL 40NM ENE OF ST AUGUSTI, UNITED STATES",0.0,9.16735469417662,17388,95.83310367634901
99701099999,31.4,-80.87,"BUOY 41008 GRAYS REEF 40 NM SOUTHEAST OF SAVANNAH, UNITED STATES",0.0,9.1698565584403,17387,95.82759190872513
60680099999,22.8,5.4333333,"TAMANRASSET, ALGERIA",1364.0,9.17287540387245,17386,95.82208014110125
63680099999,0.3166666,32.6166666,"KAMPALA, UGANDA",1140.0,9.17709241673815,17385,95.81656837347737
63862099999,-6.170436,35.752578,"DODOMA, TANZANIA",1119.53,9.17930740395273,17384,95.8110566058535
67843099999,-18.095881,25.839006,"VICTORIA FALLS INTERNATIONAL, ZIMBABWE",1063.75,9.18863380163047,17383,95.80554483822962
94614099999,-31.95,115.7666666,"SWANBOURNE, AUSTRALIA",41.0,9.18991716438732,17382,95.80003307060574
44454099999,27.696592,85.359192,"TRIBHUVAN INTERNATIONAL, NEPAL",1338.07,9.19112629953748,17381,95.79452130298186
83075099999,-23.432075,-46.469511,"GUARULHOS, BRAZIL",749.5,9.19437542637817,17380,95.78900953535799
72064399999,43.233,-93.783,"FOREST CITY MUNICIPAL, IA US",375.0,9.19854587950822,17379,95.78349776773412
99999992815,,,,,9.2003011230226,17378,95.77798600011023
10325099999,52.1,8.75,"BAD SALZUFLEN, GERMANY",98.0,9.2097770363328,17377,95.77247423248636
69304499999,33.317,43.883,"AL FALLUJAH, IRAQ",47.0,9.21860915792459,17376,95.76696246486249
10724099999,49.383,8.117,"WEINBIET AUT, GERMANY",553.0,9.21867950574028,17375,95.7614506972386
44477099999,26.9833333,87.35,"DHANKUTA, NEPAL",1210.0,9.2278395927198,17374,95.75593892961473
95761099999,-33.9833333,150.95,"HOLSWORTHY AERODROME AWS, AUSTRALIA",68.8,9.22832608631177,17373,95.75042716199084
67152099999,-22.55,45.4,"RANOHIRA, MADAGASCAR",824.0,9.22850609274836,17372,95.74491539436697
83784099999,-23.0166666,-45.5666666,"TAUBATE, BRAZIL",577.0,9.23036817789817,17371,95.7394036267431
41516099999,35.918786,74.333644,"GILGIT, PAKISTAN",1457.24,9.23466751288101,17370,95.73389185911923
94600099999,-33.5333333,115.0166666,"CAPE NATURALISTE, AUSTRALIA",110.0,9.23843940655676,17369,95.72838009149535
72392523190,34.4241,-119.84249,"SANTA BARBARA MUNICIPAL AIRPORT, CA US",2.5,9.24788271066763,17368,95.72286832387147
41254099999,23.0666667,57.6333333,"SAIQ, OMAN",1981.0,9.24907884881485,17367,95.7173565562476
68496399999,-29.648975,30.398667,"PIETERMARITZBURG, SOUTH AFRICA",738.53,9.24915678155558,17366,95.71184478862371
72392699999,34.217,-119.1,"CAMARILLO, CA US",23.0,9.25076969553434,17365,95.70633302099984
68243099999,-24.6,26.5166666,"DOORNLAAGTE, SOUTH AFRICA",946.0,9.25776236350578,17364,95.70082125337595
85577099999,-33.4333333,-70.6833333,"QUINTA NORMAL, CHILE",520.0,9.25996035889301,17363,95.69530948575208
72290993115,32.56797,-117.11715,"IMPERIAL BEACH REAM FIELD NAS, CA US",7.2,9.26042372617396,17362,95.6897977181282
87007099999,-22.150556,-65.5775,"LA QUIACA, ARGENTINA",3478.98,9.26319686900686,17361,95.68428595050432
95367099999,-21.1666666,149.1833333,"MACKAY AERO, AUSTRALIA",6.0,9.2634701051917,17360,95.67877418288046
94552099999,-27.411389,151.735278,"OAKEY, AUSTRALIA",406.9,9.26817998443832,17359,95.67326241525657
43473099999,6.9666666,80.7666666,"NUWARA ELIYA, SRI LANKA",1880.0,9.2740922438213,17358,95.6677506476327
66136399999,-11.167,13.85,"SUMBE, ANGOLA",11.0,9.2799680048043,17357,95.66223888000881
63708099999,-0.086139,34.728892,"KISUMU, KENYA",1208.53,9.28463292403399,17356,95.65672711238494
94568099999,-10.950833,142.459444,"BAMAGA INJINOO, AUSTRALIA",10.36,9.28731424418848,17355,95.65121534476107
67961099999,-20.9166666,28.45,"KEZI, ZIMBABWE",1020.0,9.2903386646039,17354,95.64570357713718
68377099999,-27.7666666,29.9833333,"NEWCASTLE, SOUTH AFRICA",1238.0,9.29803446925542,17353,95.64019180951331
46762099999,22.028842,121.533642,"LANYU, TAIWAN",13.1,9.29825432807888,17352,95.63468004188942
68349099999,-26.32506,26.787998,"VENTERSDORP, SOUTH AFRICA",1496.0,9.30173462967285,17351,95.62916827426555
67022099999,-14.651667,49.620556,"ANDAPA, MADAGASCAR",473.04,9.30407904243079,17350,95.62365650664168
10180099999,54.367,12.733,"BARTH, GERMANY",7.0,9.30560087902072,17349,95.61814473901781
68350099999,-26.7333333,27.0666666,"POTCHEFSTROOM, SOUTH AFRICA",1351.0,9.3084692452161,17348,95.61263297139394
67295099999,-19.151267,33.428958,"CHIMOIO, MOZAMBIQUE",697.07,9.31315081681228,17347,95.60712120377005
72293199999,32.867,-117.15,"MIRAMAR MCAS, CA US",146.0,9.31825430842891,17346,95.60160943614618
10152099999,54.083,10.883,"PELZERHAKEN AUT, GERMANY",2.0,9.3199920582968,17345,95.59609766852229
86922099999,-24.9666666,-48.4166666,"BARRA DO TURVO, BRAZIL",668.5,9.32609910660762,17344,95.59058590089842
8524099999,33.073386,-16.349975,"PORTO SANTO, PORTUGAL",103.93,9.33225353476514,17343,95.58507413327455
8594499999,16.136531,-22.888897,"BOA VISTA RABIL, CAPE VERDE",21.03,9.33831507877224,17342,95.57956236565066
10615099999,49.767,7.05,"DEUSELBACH, GERMANY",479.0,9.34110275569578,17341,95.57405059802679
86798099999,-19.8833333,-44.4166666,"FLORESTAL, BRAZIL",743.5,9.34254924755602,17340,95.5685388304029
60677099999,25.3333333,7.8,"AFARA, ALGERIA",1240.0,9.34542476095104,17339,95.56302706277904
68267499999,-26.248411,28.397508,"SPRINGS, SOUTH AFRICA",1627.63,9.34909554653886,17338,95.55751529515516
99999903186,,,,,9.3506659228849,17337,95.55200352753128
86945099999,-26.25,-49.5833333,"RIO NEGRINHO, BRAZIL",870.5,9.3515864316731,17336,95.5464917599074
68570099999,-30.35,28.8,"MATATIELE, SOUTH AFRICA",1490.0,9.35334558287102,17335,95.54097999228352
10609099999,49.75,6.667,"TRIER PETRISBERG, GERMANY",265.0,9.35637201065241,17334,95.53546822465965
86714099999,-15.9,-48.1166666,"FACULDADE DA TERRA, BRAZIL",1153.5,9.36693847462915,17333,95.52995645703577
86801099999,-19.5833333,-42.6333333,"TIMOTEO, BRAZIL",334.5,9.3742955816647,17332,95.5244446894119
94605099999,-32.5166666,115.7166666,"MANDURAH, AUSTRALIA",4.0,9.38094617612809,17331,95.51893292178801
68003599999,-24.1666666,19.1666666,"ARANOS, NAMIBIA",1189.0,9.38523871381281,17330,95.51342115416413
68647099999,-31.9166666,26.8833333,"QUEENSTOWN, SOUTH AFRICA",1104.0,9.3918421126111,17329,95.50790938654026
95286099999,-17.0666666,145.4333333,"MAREEBA AIRPORT AWS, AUSTRALIA",473.0,9.39289852756434,17328,95.50239761891639
68714099999,-32.968889,18.160278,"LANGEBAANWEG AFB, SOUTH AFRICA",32.91,9.39620595081556,17327,95.49688585129252
82567099999,-6.117806,-50.003472,"CARAJAS, BRAZIL",621.18,9.39737619127671,17326,95.49137408366863
84071099999,-0.141144,-78.488214,"MARISCAL SUCRE INTERNATIONAL, ECUADOR",2812.69,9.40336119413498,17325,95.48586231604476
99999993197,,,,,9.40360737928775,17324,95.48035054842087
86889099999,-22.3330556,-42.6772222,"NOVA FRIBURGO, BRAZIL",1047.5,9.40433755782329,17323,95.474838780797
68013099999,-17.883,15.95,"ONDANGWA, NAMIBIA",1096.0,9.40441276075147,17322,95.46932701317313
83672999999,-25.387461,-51.520172,"TANCREDO THOMAS DE FARIA, BRAZIL",1064.97,9.40661903066793,17321,95.46381524554924
95607099999,-32.2333333,115.6833333,"GARDEN ISLAND HSF, AUSTRALIA",6.0,9.41082023570781,17320,95.45830347792537
68014099999,-19.602167,18.122667,"GROOTFONTEIN, NAMIBIA",1413.05,9.41176328632961,17319,95.4527917103015
68543099999,-30.5333333,25.5333333,"GARIEP DAM, SOUTH AFRICA",1272.0,9.41947343196101,17318,95.44727994267762
99405099999,26.61,-80.03,"LAKE WORTH FL, UNITED STATES",0.0,9.41973965385896,17317,95.44176817505374
68649099999,-31.1166666,26.8,"JAMESTOWN, SOUTH AFRICA",1603.0,9.42331644463828,17316,95.43625640742987
67250099999,-15.6,34.4333333,"SONGO, MOZAMBIQUE",966.0,9.42354830457239,17315,95.430744639806
68368099999,-26.139166,28.246,"JOHANNESBURG INTERNATIONAL, SOUTH AFRICA",1694.07,9.42480602087227,17314,95.42523287218211
94369099999,-22.35,149.5333333,"ST LAWRENCE POST OFFICE, AUSTRALIA",18.0,9.42567501245415,17313,95.41972110455823
94757099999,-34.0666666,150.7666666,"CAMBELL TOWN MOUNT ANNAN, AUSTRALIA",112.0,9.42765711368075,17312,95.41420933693435
91848099999,-21.895833,-157.90666,"MANGAIA, COOK ISLANDS",14.0,9.42997629422327,17311,95.40869756931048
68479099999,-28.5666666,29.7666666,"LADYSMITH, SOUTH AFRICA",1069.0,9.43221508613285,17310,95.40318580168659
68346099999,-27.998,26.669586,"WELKOM, SOUTH AFRICA",1340.81,9.43365793270748,17309,95.39767403406273
10962099999,47.8,11.017,"HOHENPEISSENBERG, GERMANY",977.0,9.43469886060129,17308,95.39216226643885
94368099999,-20.35,148.95,"HAMILTON ISLAND AIRPORT, AUSTRALIA",59.0,9.4360247807947,17307,95.38665049881497
95929099999,-36.9166666,149.9,"MERIMBULA AIRPORT, AUSTRALIA",2.0,9.44265736356971,17306,95.3811387311911
96207099999,-2.7666667,101.3666667,"KERINCI DEPATI PARB, INDONESIA",782.0,9.44367905684166,17305,95.37562696356721
68453399999,-29.462256,27.552503,"MOSHOESHOE I INTERNATIONAL, LESOTHO",1630.07,9.44740116714077,17304,95.37011519594334
74704303165,34.08333,-118.03333,"EL MONTE EMSU, CA US",90.2,9.45180075391773,17303,95.36460342831946
86921099999,-24.7833333,-49.9833333,"CASTRO, BRAZIL",1008.86,9.45389903756508,17302,95.35909166069558
67477099999,-11.9,31.4333333,"MPIKA, ZAMBIA",1402.0,9.4635752424611,17301,95.35357989307171
82599199999,-26.879999,-48.65139,"MINISTRO VICTOR KONDER INTERNATIONAL, BRAZIL",5.48,9.46489973771113,17300,95.34806812544782
60662099999,25.8166667,8.1833333,"FADNOUNE, ALGERIA",1291.0,9.46604065171811,17299,95.34255635782395
56671099999,26.65,102.25,"HUILI, CHINA",1788.0,9.46706693776074,17298,95.33704459020008
94562099999,-27.55,152.3333333,"UNIVERSITY OF QUEENSLAND GATTON, AUSTRALIA",94.0,9.48211300798925,17297,95.33153282257621
68290599999,-25.333822,27.173358,"PILANESBERG INTERNATIONAL, SOUTH AFRICA",1039.97,9.48775017049833,17296,95.32602105495232
69808499999,29.33,47.5166667,"ALI AL SALEM, KUWAIT",144.0,9.49198018521894,17295,95.32050928732845
86929099999,-25.5666666,-51.0833333,"INACIO MARTINS, BRAZIL",1261.5,9.49351717332777,17294,95.31499751970458
68512199999,-26.93,29.22,"STANDERTON, SOUTH AFRICA",1581.0,9.49351784195981,17293,95.30948575208069
67753099999,-16.8333333,27.0666667,"CHOMA, ZAMBIA",1278.0,9.49657185350652,17292,95.30397398445682
94601099999,-34.3666666,115.1333333,"CAPE LEEUWIN, AUSTRALIA",14.0,9.49955331118973,17291,95.29846221683293
72293093107,32.86667,-117.13333,"SAN DIEGO MIRAMAR NAS, CA US",145.4,9.50276132851102,17290,95.29295044920906
10735099999,49.25,8.883,"SINSHEIM AUT, GERMANY",169.0,9.50729125909653,17289,95.28743868158517
42516099999,25.5666666,91.8833333,"SHILLONG, INDIA",1598.0,9.512213262416,17288,95.28192691396131
86933099999,-25.4486111,-49.23,"CURITIBA, BRAZIL",925.0,9.51791805826032,17287,95.27641514633743
56571099999,27.9,102.2666667,"XICHANG, CHINA",1599.0,9.521987864528,17286,95.27090337871356
10515099999,50.417,7.583,"BENDORF, GERMANY",96.0,9.52295386558067,17285,95.26539161108968
68668099999,-31.547903,28.674289,"MTHATHA, SOUTH AFRICA",731.52,9.52781283090101,17284,95.2598798434658
86905099999,-23.9833333,-48.8833333,"ITAPEVA, BRAZIL",708.5,9.53150027209555,17283,95.25436807584192
86722099999,-15.75,-41.45,"AGUAS VERMELHAS, BRAZIL",751.5,9.53716774975749,17282,95.24885630821804
10139099999,53.5,9.167,"BREMERVOERDE AUT, GERMANY",5.0,9.53808591274853,17281,95.24334454059417
95635099999,-33.9333333,120.1333333,"HOPETOWN NORTH, AUSTRALIA",27.0,9.54270083659635,17280,95.2378327729703
10449099999,51.4,10.317,"LEINEFELDE AUT, GERMANY",356.0,9.54597751614139,17279,95.2323210053464
94542099999,-27.15,151.2666666,"DALBY AIRPORT, AUSTRALIA",348.0,9.54686490022916,17278,95.22680923772255
94760099999,-33.85,150.85,"HORSLEY EQUESTRIAN CENTRE, AUSTRALIA",100.0,9.54839395590688,17277,95.22129747009866
76662099999,19.9833333,-102.3166666,"ZAMORA MICH., MEXICO",1562.0,9.55222062736131,17276,95.21578570247479
94608099999,-31.9166666,115.8666666,"PERTH METRO, AUSTRALIA",25.0,9.55847282380533,17275,95.2102739348509
91582099999,-20.7748,167.239864,"LIFOU, NEW CALEDONIA",28.04,9.56609214295356,17274,95.20476216722703
68242099999,-25.798444,25.548028,"MMABATHO INTERNATIONAL, SOUTH AFRICA",1274.36,9.56646394714394,17273,95.19925039960316
67971099999,-20.3166666,30.0666666,"ZVISHAVANE, ZIMBABWE",980.0,9.56702386145136,17272,95.19373863197927
56886099999,24.5333333,103.7666666,"LUXI, CHINA",1708.0,9.57122197108936,17271,95.1882268643554
86944099999,-26.9333333,-50.15,"RIO DO CAMPO, BRAZIL",593.5,9.57127046798058,17270,95.18271509673151
83926099999,-26.8666666,-48.6333333,"NAVEGANTES AERO, BRAZIL",5.0,9.57127470575495,17269,95.17720332910764
10458099999,51.65,11.133,"HARZGERODE, GERMANY",405.0,9.5755576928501,17268,95.17169156148377
10170099999,54.183,12.083,"WARNEMUENDE, GERMANY",10.0,9.57842530113787,17267,95.1661797938599
94755099999,-34.040278,150.687222,"CAMDEN, AUSTRALIA",70.1,9.57978218451725,17266,95.16066802623601
72290753143,32.82611,-116.9725,"GILLESPIE FIELD AIRPORT, CA US",118.0,9.58455916074229,17265,95.15515625861214
94291099999,-17.5166666,146.0333333,"INNISFAIL, AUSTRALIA",8.0,9.58922717508071,17264,95.14964449098827
94651099999,-31.45,130.9,"NULLARBOR, AUSTRALIA",65.0,9.59009833868105,17263,95.14413272336438
81860099999,-6.0833333,-50.15,"SERRA DE CARAJAS, BRAZIL",720.5,9.59462119406426,17262,95.1386209557405
76775099999,17.05,-96.7166666,"OAXACA OAX., MEXICO",1518.0,9.5972351481285,17261,95.13310918811662
10675099999,49.883,10.917,"BAMBERG USA AF, GERMANY",242.0,9.60069306271432,17260,95.12759742049275
60220099999,31.399181,-9.682992,"ESSAOUIRA, MOROCCO",128.02,9.60122663608861,17259,95.12208565286888
95541099999,-29.7833333,151.1166666,"INVERELL RAGLAN ST, AUSTRALIA",636.0,9.6027840589536,17258,95.11657388524499
86910099999,-23.4963889,-46.62,"SAO PAULO MIRANTE DE SANTANA, BRAZIL",793.56,9.60398879316827,17257,95.11106211762113
85580099999,-33.456278,-70.546667,"EULOGIO SANCHEZ, CHILE",648.91,9.60904233643564,17256,95.10555034999724
44424099999,29.2833333,82.1666667,"JUMLA, NEPAL",2300.0,9.61230898360633,17255,95.10003858237337
68488099999,-28.3666666,31.2166666,"BABANANGO, SOUTH AFRICA",768.0,9.61235040892504,17254,95.09452681474949
68719099999,-32.95,19.4333333,"EXCELSIOR, SOUTH AFRICA",945.0,9.61298340594184,17253,95.08901504712561
68257099999,-25.25,27.2166666,"PILANESBERG, SOUTH AFRICA",1086.0,9.61401275217091,17252,95.08350327950174
68581099999,-29.6333333,30.4,"PIETERMARITZBURG, SOUTH AFRICA",673.0,9.61537374665957,17251,95.07799151187785
84720099999,-14.853953,-74.961542,"MARIA REICHE NEUMAN, PERU",566.92,9.61754437972779,17250,95.07247974425398
94616099999,-33.95,116.1333333,"BRIDGETOWN POST OFFICE, AUSTRALIA",151.0,9.61907680508983,17249,95.0669679766301
68300799999,-26.566372,27.960756,"VEREENIGING, SOUTH AFRICA",1477.06,9.62115467283993,17248,95.06145620900622
10776099999,49.05,12.1,"REGENSBURG OBERHUB, GERMANY",376.0,9.6218103996519,17247,95.05594444138235
86844099999,-21.7833333,-47.0833333,"CASA BRANCA, BRAZIL",731.5,9.6222434145249,17246,95.05043267375848
10658099999,50.2,10.083,"BAD KISSINGEN, GERMANY",224.0,9.6233154960678,17245,95.0449209061346
83914099999,-28.243989,-52.326558,"LAURO KURTZ, BRAZIL",724.2,9.6265523106622,17244,95.03940913851072
86902099999,-23.7666666,-50.1833333,"IBAITI, BRAZIL",931.5,9.62725725217823,17243,95.03389737088685
10579099999,50.65,13.15,"MARIENBERG, GERMANY",640.0,9.63215423310166,17242,95.02838560326296
94638099999,-33.8333333,121.8925,"ESPERANCE, AUSTRALIA",27.0,9.63762094109048,17241,95.02287383563909
68267599999,-23.0833333,26.8,"MAHALAPYE, BOTSWANA",991.0,9.63848546075537,17240,95.01736206801522
69014093101,33.66667,-117.73333,"EL TORO MCAS, CA US",117.0,9.64692978843413,17239,95.01185030039133
68923099999,-34.15,19.9,"TIGERHOEK, SOUTH AFRICA",151.0,9.64787996169333,17238,95.00633853276746
86940099999,-26.9333333,-52.4,"XANXERE, BRAZIL",890.5,9.65186651996162,17237,95.00082676514359
94604099999,-33.35,115.65,"BUNBURY, AUSTRALIA",6.0,9.65501667363921,17236,94.99531499751971
41080099999,19.1166666,41.0833333,"AL QUNFUDAH, SAUDI ARABIA",0.0,9.66085984721452,17235,94.98980322989583
68234099999,-24.602333,24.690971,"JWANENG, BOTSWANA",1188.72,9.66219428339178,17234,94.98429146227195
85467099999,-27.25,-70.77,"DESIERTO DE ATACMA, CHILE",204.0,9.6681610415345,17233,94.97877969464807
56875099999,24.45,102.567,"YUXI, CHINA",1677.0,9.67369005258247,17232,94.9732679270242
99408299999,28.43,-82.66,"APK ARIPEKA FL, UNITED STATES",0.0,9.67441129413411,17231,94.96775615940032
94377099999,-24.9,151.1,"MONTO AIRPORT, AUSTRALIA",231.0,9.6762192438192,17230,94.96224439177644
82030599999,-22.196892,-49.9264,"MARILIA, BRAZIL",646.78,9.67818546983132,17229,94.95673262415256
85574099999,-33.392975,-70.785803,"ARTURO MERINO BENITEZ INTERNATIONAL, CHILE",473.96,9.68260568733316,17228,94.95122085652868
10815099999,48.45,8.417,"FREUDENSTADT, GERMANY",797.0,9.69226993310655,17227,94.94570908890482
67461099999,-11.1,28.85,"MANSA, ZAMBIA",1384.0,9.69612302114063,17226,94.94019732128093
68004599999,-17.483017,16.321956,"EENHANA, NAMIBIA",1115.56,9.69823084270772,17225,94.93468555365706
95931099999,-36.6666666,149.8166666,"BEGA AWS, AUSTRALIA",42.0,9.70996584918775,17224,94.92917378603319
69689099999,,,,,9.71013958273748,17223,94.9236620184093
68840099999,-33.05,25.7166666,"SOMERSET, SOUTH AFRICA",506.0,9.71211232844848,17222,94.91815025078543
41055099999,20.296139,41.634277,"AL BAHA, SAUDI ARABIA",1672.13,9.71504922377805,17221,94.91263848316154
68447099999,-28.95,26.3333333,"GLEN COLLEGE AWS, SOUTH AFRICA",1303.0,9.72193378149866,17220,94.90712671553767
68271099999,-24.2,29.0,"KOPANE, SOUTH AFRICA",1097.0,9.72409625096961,17219,94.9016149479138
72289799999,35.233,-120.633,"SAN LUIS CO REGIONAL, CA US",65.0,9.72450396936267,17218,94.89610318028991
10655099999,49.767,9.967,"WURZBURG USA AF, GERMANY",259.0,9.72654329116465,17217,94.89059141266604
68333099999,-27.4333333,23.45,"KURUMAN, SOUTH AFRICA",1315.0,9.72810063682136,17216,94.88507964504217
68558099999,-30.9333333,27.6,"BARKLY EAST, SOUTH AFRICA",1819.0,9.72835205942641,17215,94.8795678774183
68330499999,-23.15,29.683,"LOUIS TRICHARDT AFB, SOUTH AFRICA",959.0,9.7296376887442,17214,94.87405610979441
86675099999,-13.0166666,-39.6166666,"AMARGOSA, BRAZIL",408.5,9.73053927052539,17213,94.86854434217054
91190799999,20.795636,-156.014439,"HANA, HI US",23.77,9.73372721667441,17212,94.86303257454665
94985099999,-42.0333333,147.5,"ROSS THE BOULEVARDS, AUSTRALIA",186.0,9.73500164923684,17211,94.85752080692278
81877099999,-6.9666666,-35.6833333,"AREIA, BRAZIL",576.12,9.74215204851086,17210,94.8520090392989
66136299999,-7.4,20.817,"DUNDO, ANGOLA",747.0,9.74280241181391,17209,94.84649727167502
60107099999,35.177103,-3.839525,"CHERIF EL IDRISSI, MOROCCO",27.12,9.75523364451878,17208,94.84098550405115
61901099999,-15.9333333,-5.6666666,"ST. HELENA IS., ST. HELENA",436.0,9.76004504777443,17207,94.83547373642726
94752099999,-33.9,150.7333333,"BADGERY S CREEK AIRPORT, AUSTRALIA",82.0,9.76831099255384,17206,94.8299619688034
95771099999,-32.7833333,151.3333333,"CESSNOCK AIRPORT, AUSTRALIA",62.0,9.76925778890748,17205,94.82445020117952
72289793206,35.23815,-120.64406,"SAN LUIS OBISPO MCCHESNEY FIELD, CA US",55.8,9.77048406578892,17204,94.81893843355564
86718099999,-15.5166666,-46.4333333,"BURITIS, BRAZIL",895.5,9.77104824571482,17203,94.81342666593177
68817099999,-33.9,18.4333333,"CAPE TOWN PORTNET, SOUTH AFRICA",2.0,9.77368163768379,17202,94.80791489830789
68264099999,-25.83,28.2225,"WATERKLOOF AFB, SOUTH AFRICA",1505.71,9.77798816279473,17201,94.80240313068401
10671099999,50.283,10.983,"COBURG, GERMANY",337.0,9.78374998826654,17200,94.79689136306013
86954099999,-27.6666666,-52.3,"ERECHIM, BRAZIL",766.5,9.80243651462022,17199,94.79137959543625
44404099999,29.3,80.5833333,"DADELDHURA, NEPAL",1848.0,9.80703880206979,17198,94.78586782781238
72292799999,33.128,-117.28,"MC CLELLAN PALOMAR, CA US",101.0,9.80906408848838,17197,94.7803560601885
64453099999,-2.5333333,14.7666667,"DJAMBALA, CONGO",790.0,9.81410780080013,17196,94.77484429256464
94938099999,-35.35,150.4833333,"ULLADULLA AWS, AUSTRALIA",37.0,9.8154757500977,17195,94.76933252494075
94386099999,-23.45,151.9166666,"HERON ISLAND RES STATION, AUSTRALIA",6.0,9.81977034537299,17194,94.76382075731688
68582099999,-29.65,30.4,"ORIBI AIRPORT, SOUTH AFRICA",739.0,9.82168167321946,17193,94.75830898969299
96995099999,-10.450556,105.690278,"CHRISTMAS ISLAND, CHRISTMAS ISLAND",279.19,9.8237665990719,17192,94.75279722206912
76220099999,28.95,-107.8166666,"TEMOSACHIC CHIH., MEXICO",1932.0,9.83290972104916,17191,94.74728545444523
67067099999,-17.6333333,48.5,"AMBOHITSILAOZANA, MADAGASCAR",780.0,9.8349250196507,17190,94.74177368682136
68925099999,-34.1394444,19.0227778,"ELGIN EXPERIMENTAL FARM, SOUTH AFRICA",311.0,9.84001847798686,17189,94.73626191919749
72272699999,31.42,-110.85,"NOGALES AUTOMATIC METEOROLOGICAL, AZ US",1198.0,9.84630212081502,17188,94.7307501515736
99729299999,32.87,-117.25,"LA JOLLA, CA US",20.0,9.85044749315238,17187,94.72523838394973
99999992813,,,,,9.85427951034015,17186,94.71972661632586
10093099999,54.367,13.483,"PUTBUS, GERMANY",34.0,9.85446468923571,17185,94.71421484870199
95753099999,-33.6,150.7833333,"RICHMOND RAAF, AUSTRALIA",20.0,9.85631505735965,17184,94.7087030810781
80222099999,4.701594,-74.146947,"ELDORADO INTERNATIONAL, COLOMBIA",2548.43,9.86234126241532,17183,94.70319131345423
86956099999,-27.2833333,-50.6,"CURITIBANOS, BRAZIL",983.5,9.86274141406607,17182,94.69767954583035
68408099999,-29.2333333,16.8666666,"PORT NOLLOTH, SOUTH AFRICA",10.0,9.86361369672336,17181,94.69216777820647
94295099999,-18.5166666,146.3833333,"LUCINDA POINT AWS, AUSTRALIA",10.0,9.86840744115037,17180,94.6866560105826
76323099999,26.9333333,-105.6666666,"HIDALGO DEL PARRAL CHIH., MEXICO",1661.0,9.87505253697063,17179,94.68114424295871
83899099999,-27.670489,-48.547181,"HERCILIO LUZ, BRAZIL",6.09,9.88101862268805,17178,94.67563247533484
61809099999,11.326058,-12.28685,"LABE, GUINEA",1035.1,9.88167751284924,17177,94.67012070771096
80414399999,10.286589,-66.816219,"OSCAR MACHADO ZULOAGA, VENEZUELA",653.79,9.88273652753848,17176,94.66460894008708
95543099999,-25.6166666,151.6166666,"GAYNDAH AIRPORT, AUSTRALIA",112.0,9.89078852316544,17175,94.65909717246322
68343099999,-27.65,25.6166666,"BLOEMHOF, SOUTH AFRICA",1128.0,9.89244937265984,17174,94.65358540483933
95370099999,-22.47,150.18,"WILLIAMSON, AUSTRALIA",28.0,9.89357588388208,17173,94.64807363721546
